[{"주소":"서울특별시 종로구 사직동 9","apartment_name":"광화문스페이스본(101동~105동)","lng":126.9688808672,"lat":37.5744172415,"gcn_class":20},{"주소":"서울특별시 종로구 사직동 9-1","apartment_name":"광화문스페이스본(106동)","lng":126.9677626926,"lat":37.5735474815,"gcn_class":20},{"주소":"서울특별시 종로구 견지동 110","apartment_name":"대성스카이렉스","lng":126.9824417946,"lat":37.5724878538,"gcn_class":20},{"주소":"서울특별시 종로구 연지동 163-3","apartment_name":"아르젠종로","lng":126.998735666,"lat":37.5732441866,"gcn_class":20},{"주소":"서울특별시 종로구 명륜3가 1-102","apartment_name":"(1-102)","lng":126.9952562187,"lat":37.5894636962,"gcn_class":20},{"주소":"서울특별시 종로구 창신동 232","apartment_name":"두산","lng":127.0142874203,"lat":37.5742176646,"gcn_class":20},{"주소":"서울특별시 종로구 창신동 703","apartment_name":"창신쌍용2","lng":127.0117852653,"lat":37.5803232585,"gcn_class":20},{"주소":"서울특별시 종로구 창신동 702","apartment_name":"창신쌍용1","lng":127.0140146518,"lat":37.580512584,"gcn_class":20},{"주소":"서울특별시 종로구 창신동 23-326","apartment_name":"그린","lng":127.0106864102,"lat":37.5793278549,"gcn_class":20},{"주소":"서울특별시 종로구 창신동 638-45","apartment_name":"삼흥","lng":127.0093378815,"lat":37.5758837386,"gcn_class":20},{"주소":"서울특별시 종로구 창신동 23-816","apartment_name":"창신이수","lng":127.0146961413,"lat":37.5779927813,"gcn_class":20},{"주소":"서울특별시 종로구 창신동 578-5","apartment_name":"동대문맨션","lng":127.0110199234,"lat":37.5724007081,"gcn_class":20},{"주소":"서울특별시 종로구 창신동 328-17","apartment_name":"동대문","lng":127.0151882237,"lat":37.5722686101,"gcn_class":20},{"주소":"서울특별시 종로구 창신동 601-2","apartment_name":"MID그린(3동)","lng":127.0100189693,"lat":37.577953447,"gcn_class":20},{"주소":"서울특별시 종로구 창신동 23-76","apartment_name":"브라운스톤창신","lng":127.0150297536,"lat":37.577378982,"gcn_class":20},{"주소":"서울특별시 종로구 창신동 601-8","apartment_name":"MID그린(7동)","lng":127.0100382789,"lat":37.5775890833,"gcn_class":20},{"주소":"서울특별시 종로구 창신동 436-41","apartment_name":"동문상가","lng":127.0113877494,"lat":37.5704490275,"gcn_class":20},{"주소":"서울특별시 종로구 창신동 639-50","apartment_name":"덕산","lng":127.0099081222,"lat":37.5761162388,"gcn_class":20},{"주소":"서울특별시 종로구 창신동 601","apartment_name":"MID그린(1동)","lng":127.0100006621,"lat":37.578195816,"gcn_class":20},{"주소":"서울특별시 종로구 창신동 639-20","apartment_name":"창림","lng":127.0093603105,"lat":37.575999875,"gcn_class":20},{"주소":"서울특별시 종로구 창신동 640-252","apartment_name":"성용","lng":127.0095270614,"lat":37.5751171573,"gcn_class":20},{"주소":"서울특별시 종로구 창신동 601-4","apartment_name":"MID그린(5동)","lng":127.0097318505,"lat":37.5777630909,"gcn_class":20},{"주소":"서울특별시 종로구 창신동 601-7","apartment_name":"MID그린(6동)","lng":127.009734207,"lat":37.5776026236,"gcn_class":20},{"주소":"서울특별시 종로구 창신동 640-76","apartment_name":"유성","lng":127.0093686131,"lat":37.5754051278,"gcn_class":20},{"주소":"서울특별시 종로구 숭인동 76","apartment_name":"롯데캐슬천지인","lng":127.0161778105,"lat":37.5738517069,"gcn_class":20},{"주소":"서울특별시 종로구 숭인동 2-1","apartment_name":"종로센트레빌","lng":127.0159276819,"lat":37.5809772541,"gcn_class":20},{"주소":"서울특별시 종로구 숭인동 473","apartment_name":"하림빌라트","lng":127.0213270827,"lat":37.578530564,"gcn_class":20},{"주소":"서울특별시 종로구 숭인동 766","apartment_name":"종로청계힐스테이트","lng":127.0211512423,"lat":37.5760304266,"gcn_class":20},{"주소":"서울특별시 종로구 숭인동 1421-2","apartment_name":"숭인한양LEEPS","lng":127.0223706388,"lat":37.573618149,"gcn_class":20},{"주소":"서울특별시 종로구 숭인동 296-19","apartment_name":"삼전솔하임2차","lng":127.0167293432,"lat":37.572407155,"gcn_class":20},{"주소":"서울특별시 종로구 숭인동 569-3","apartment_name":"숭인모범105동","lng":127.0192624166,"lat":37.5777548927,"gcn_class":20},{"주소":"서울특별시 종로구 숭인동 1421-1","apartment_name":"종로동광모닝스카이","lng":127.0223771529,"lat":37.5734457875,"gcn_class":20},{"주소":"서울특별시 종로구 숭인동 178-76","apartment_name":"탑스빌","lng":127.0201209158,"lat":37.5749941927,"gcn_class":20},{"주소":"서울특별시 종로구 숭인동 569-4","apartment_name":"숭인모범103동","lng":127.0191475543,"lat":37.5774803785,"gcn_class":20},{"주소":"서울특별시 종로구 숭인동 318-2","apartment_name":"삼전솔하임4차","lng":127.0167171083,"lat":37.5713521815,"gcn_class":20},{"주소":"서울특별시 종로구 숭인동 201-11","apartment_name":"종로유케이201","lng":127.0213069532,"lat":37.573838549,"gcn_class":20},{"주소":"서울특별시 종로구 숭인동 888","apartment_name":"오성","lng":127.0200422914,"lat":37.5772988598,"gcn_class":20},{"주소":"서울특별시 종로구 숭인동 204-11","apartment_name":"숭인상가","lng":127.020567846,"lat":37.5721312045,"gcn_class":20},{"주소":"서울특별시 종로구 숭인동 569-2","apartment_name":"숭인모범104동","lng":127.0190981313,"lat":37.5776695953,"gcn_class":20},{"주소":"서울특별시 종로구 숭인동 494","apartment_name":"동문(비동,씨동)(494-0)","lng":127.0214617863,"lat":37.5780863495,"gcn_class":20},{"주소":"서울특별시 종로구 숭인동 1392","apartment_name":"익성씨티하임","lng":127.0227198933,"lat":37.573716471,"gcn_class":20},{"주소":"서울특별시 종로구 숭인동 482","apartment_name":"동문(482-0)","lng":127.0216368425,"lat":37.5782147993,"gcn_class":20},{"주소":"서울특별시 종로구 숭인동 1421","apartment_name":"버넷하임1","lng":127.0223677339,"lat":37.5737460909,"gcn_class":20},{"주소":"서울특별시 중구 묵정동 11-67","apartment_name":"묵정","lng":127.0000529688,"lat":37.5606825988,"gcn_class":9},{"주소":"서울특별시 중구 묵정동 11-2","apartment_name":"충무","lng":127.0006888222,"lat":37.5607801748,"gcn_class":9},{"주소":"서울특별시 용산구 동자동 19-8","apartment_name":"동자","lng":126.9750616565,"lat":37.5511168671,"gcn_class":17},{"주소":"서울특별시 용산구 동자동 45","apartment_name":"센트레빌아스테리움서울","lng":126.973210049,"lat":37.5516713864,"gcn_class":3},{"주소":"서울특별시 용산구 산천동 193","apartment_name":"리버힐삼성","lng":126.9505934068,"lat":37.535002087,"gcn_class":25},{"주소":"서울특별시 용산구 산천동 204","apartment_name":"한강타운","lng":126.9502128603,"lat":37.5357557043,"gcn_class":25},{"주소":"서울특별시 용산구 도원동 23","apartment_name":"삼성래미안","lng":126.9553168354,"lat":37.5382964045,"gcn_class":25},{"주소":"서울특별시 용산구 도원동 3-4","apartment_name":"제일1","lng":126.9580956054,"lat":37.5391365247,"gcn_class":17},{"주소":"서울특별시 용산구 용산동5가 24","apartment_name":"용산파크타워(24-0)","lng":126.9706846894,"lat":37.5242745211,"gcn_class":3},{"주소":"서울특별시 용산구 용산동5가 24-1","apartment_name":"용산파크타워(24-1)","lng":126.9728162216,"lat":37.523318707,"gcn_class":3},{"주소":"서울특별시 용산구 이촌동 412","apartment_name":"이촌코오롱(A)","lng":126.9779375449,"lat":37.5200749032,"gcn_class":25},{"주소":"서울특별시 용산구 이촌동 422","apartment_name":"북한강(성원)","lng":126.9537946537,"lat":37.527307931,"gcn_class":25},{"주소":"서울특별시 용산구 이촌동 411","apartment_name":"동아그린","lng":126.9580327267,"lat":37.5239356203,"gcn_class":25},{"주소":"서울특별시 용산구 이촌동 402","apartment_name":"강촌","lng":126.9774682371,"lat":37.5192338183,"gcn_class":25},{"주소":"서울특별시 용산구 이촌동 400","apartment_name":"현대한강","lng":126.9575761581,"lat":37.523324037,"gcn_class":25},{"주소":"서울특별시 용산구 이촌동 301-160","apartment_name":"현대맨숀","lng":126.9808378662,"lat":37.5185919978,"gcn_class":17},{"주소":"서울특별시 용산구 이촌동 404","apartment_name":"한가람","lng":126.9702866466,"lat":37.5215850191,"gcn_class":25},{"주소":"서울특별시 용산구 이촌동 300-11","apartment_name":"왕궁","lng":126.9782416663,"lat":37.5171582319,"gcn_class":17},{"주소":"서울특별시 용산구 이촌동 415","apartment_name":"한강(대우)","lng":126.9694753031,"lat":37.5222169557,"gcn_class":25},{"주소":"서울특별시 용산구 이촌동 430","apartment_name":"LG한강자이","lng":126.9711073008,"lat":37.5199475598,"gcn_class":25},{"주소":"서울특별시 용산구 이촌동 418","apartment_name":"동부센트레빌","lng":126.9665237039,"lat":37.5211823454,"gcn_class":25},{"주소":"서울특별시 용산구 이촌동 435","apartment_name":"보람더하임","lng":126.9687694344,"lat":37.5202697941,"gcn_class":25},{"주소":"서울특별시 용산구 이촌동 395","apartment_name":"대림","lng":126.9549284636,"lat":37.5252183147,"gcn_class":25},{"주소":"서울특별시 용산구 이촌동 426","apartment_name":"이촌동삼성리버스위트","lng":126.9768109573,"lat":37.5172359866,"gcn_class":25},{"주소":"서울특별시 용산구 이촌동 302-45","apartment_name":"노들","lng":126.9699737344,"lat":37.520214064,"gcn_class":17},{"주소":"서울특별시 용산구 이촌동 399-1","apartment_name":"우성","lng":126.9683634183,"lat":37.5216751604,"gcn_class":25},{"주소":"서울특별시 용산구 이촌동 436","apartment_name":"래미안첼리투스","lng":126.9799906529,"lat":37.5171784533,"gcn_class":3},{"주소":"서울특별시 용산구 이촌동 301-155","apartment_name":"두산위브트레지움","lng":126.9671257971,"lat":37.5218187126,"gcn_class":17},{"주소":"서울특별시 용산구 이촌동 300-301","apartment_name":"삼익","lng":126.9760379855,"lat":37.5184622781,"gcn_class":17},{"주소":"서울특별시 용산구 이촌동 302-62","apartment_name":"코스모스","lng":126.9680440828,"lat":37.5208586758,"gcn_class":17},{"주소":"서울특별시 용산구 이촌동 300-10","apartment_name":"점보","lng":126.9787032637,"lat":37.5180494084,"gcn_class":25},{"주소":"서울특별시 용산구 이촌동 301-170","apartment_name":"반도","lng":126.9820516552,"lat":37.5170232713,"gcn_class":17},{"주소":"서울특별시 용산구 이촌동 302-28","apartment_name":"타워맨션","lng":126.9649740361,"lat":37.5209729534,"gcn_class":17},{"주소":"서울특별시 용산구 이촌동 300-23","apartment_name":"한강맨숀","lng":126.9750265392,"lat":37.519330095,"gcn_class":17},{"주소":"서울특별시 용산구 이촌동 193-3","apartment_name":"강변","lng":126.9592412491,"lat":37.52351933,"gcn_class":17},{"주소":"서울특별시 용산구 이촌동 302-86","apartment_name":"빌라맨션","lng":126.9643917468,"lat":37.5213248912,"gcn_class":17},{"주소":"서울특별시 용산구 이촌동 301-10","apartment_name":"로얄맨숀","lng":126.9745362613,"lat":37.5200578207,"gcn_class":17},{"주소":"서울특별시 용산구 이촌동 302-61","apartment_name":"제일","lng":126.9684207986,"lat":37.5210735762,"gcn_class":17},{"주소":"서울특별시 용산구 이촌동 193-5","apartment_name":"강서","lng":126.95958778,"lat":37.5232564464,"gcn_class":17},{"주소":"서울특별시 용산구 이촌동 300-27","apartment_name":"리버뷰","lng":126.9719461157,"lat":37.5201637324,"gcn_class":17},{"주소":"서울특별시 용산구 이촌동 302-69","apartment_name":"정우","lng":126.9671750973,"lat":37.5208341104,"gcn_class":17},{"주소":"서울특별시 용산구 이촌동 302-54","apartment_name":"미주A","lng":126.9690910785,"lat":37.5204389069,"gcn_class":17},{"주소":"서울특별시 용산구 이촌동 434","apartment_name":"동원베네스트","lng":126.9550573057,"lat":37.5269327905,"gcn_class":25},{"주소":"서울특별시 용산구 이촌동 302-63","apartment_name":"한강동부","lng":126.9681205905,"lat":37.5205037914,"gcn_class":25},{"주소":"서울특별시 용산구 이촌동 302-64","apartment_name":"장미","lng":126.9676854876,"lat":37.5200747958,"gcn_class":17},{"주소":"서울특별시 용산구 이촌동 414","apartment_name":"이촌코오롱(B)","lng":126.9800205904,"lat":37.5190183973,"gcn_class":25},{"주소":"서울특별시 용산구 이촌동 300-17","apartment_name":"중앙하이츠(A)","lng":126.9770179117,"lat":37.5181277501,"gcn_class":25},{"주소":"서울특별시 용산구 한남동 807","apartment_name":"한남힐스테이트","lng":127.0037883574,"lat":37.5284614513,"gcn_class":25},{"주소":"서울특별시 용산구 한남동 29-4","apartment_name":"한성1","lng":127.0090806454,"lat":37.5345489585,"gcn_class":17},{"주소":"서울특별시 용산구 한남동 825","apartment_name":"한남파라곤","lng":127.0032813124,"lat":37.5391384179,"gcn_class":25},{"주소":"서울특별시 용산구 한남동 72-1","apartment_name":"한남동리첸시아","lng":127.0078996633,"lat":37.5344707464,"gcn_class":25},{"주소":"서울특별시 용산구 한남동 1-44","apartment_name":"힐탑트레져1동","lng":127.0137184783,"lat":37.5384658809,"gcn_class":25},{"주소":"서울특별시 용산구 한남동 810","apartment_name":"한남더힐","lng":127.0094904126,"lat":37.536972618,"gcn_class":25},{"주소":"서울특별시 용산구 한남동 522-1","apartment_name":"한남동동원베네스트","lng":127.007715043,"lat":37.5303376861,"gcn_class":25},{"주소":"서울특별시 용산구 한남동 644-2","apartment_name":"태성1","lng":127.0042136466,"lat":37.5329064374,"gcn_class":17},{"주소":"서울특별시 용산구 한남동 732-19","apartment_name":"장미1","lng":126.9980410736,"lat":37.5341575362,"gcn_class":17},{"주소":"서울특별시 용산구 한남동 684-82","apartment_name":"뉴캐슬하우스","lng":127.0008605549,"lat":37.5344286604,"gcn_class":25},{"주소":"서울특별시 용산구 한남동 263-10","apartment_name":"성아1","lng":127.0086364118,"lat":37.5342112066,"gcn_class":17},{"주소":"서울특별시 용산구 한남동 1-349","apartment_name":"시범","lng":127.0123714594,"lat":37.5391764684,"gcn_class":17},{"주소":"서울특별시 용산구 한남동 258","apartment_name":"리버티하우스","lng":127.0086791059,"lat":37.5335782503,"gcn_class":25},{"주소":"서울특별시 용산구 한남동 808","apartment_name":"대림아르빌","lng":127.001357596,"lat":37.5349846634,"gcn_class":25},{"주소":"서울특별시 용산구 한남동 805","apartment_name":"현대하이페리온","lng":127.0048334262,"lat":37.5276866417,"gcn_class":25},{"주소":"서울특별시 용산구 한남동 799","apartment_name":"효성빌리지","lng":127.0122214359,"lat":37.5330091349,"gcn_class":25},{"주소":"서울특별시 용산구 한남동 809","apartment_name":"대성이태리하우스","lng":127.0033657048,"lat":37.5387697263,"gcn_class":25},{"주소":"서울특별시 용산구 한남동 802","apartment_name":"리버탑","lng":127.0083321279,"lat":37.529719467,"gcn_class":25},{"주소":"서울특별시 용산구 한남동 665-2","apartment_name":"오페라하우스WEST","lng":127.0008075964,"lat":37.5336640714,"gcn_class":25},{"주소":"서울특별시 용산구 한남동 27-2","apartment_name":"형우베스트빌3차","lng":127.0107509577,"lat":37.5345512509,"gcn_class":25},{"주소":"서울특별시 용산구 한남동 737-28","apartment_name":"현대안성타워","lng":126.9979076542,"lat":37.5350861954,"gcn_class":25},{"주소":"서울특별시 용산구 한남동 723-3","apartment_name":"한남하우스","lng":127.0055257698,"lat":37.5381419181,"gcn_class":17},{"주소":"서울특별시 용산구 한남동 1-297","apartment_name":"로얄튼빌라","lng":127.0098434018,"lat":37.5324817308,"gcn_class":25},{"주소":"서울특별시 용산구 한남동 550","apartment_name":"현대하이페리온II","lng":127.0059620925,"lat":37.5285335318,"gcn_class":25},{"주소":"서울특별시 용산구 한남동 26-10","apartment_name":"트윈빌비동","lng":127.0108726557,"lat":37.5342584145,"gcn_class":25},{"주소":"서울특별시 용산구 한남동 1-51","apartment_name":"한남동UNVILLAGE루하우스","lng":127.0124685318,"lat":37.5364029088,"gcn_class":25},{"주소":"서울특별시 용산구 한남동 96-3","apartment_name":"신성미소시티","lng":127.0071168951,"lat":37.5315178552,"gcn_class":25},{"주소":"서울특별시 용산구 한남동 686-30","apartment_name":"한남로얄팰리스","lng":126.9992869883,"lat":37.53373426,"gcn_class":25},{"주소":"서울특별시 용산구 한남동 26-5","apartment_name":"트윈빌에이동","lng":127.0103669887,"lat":37.5339814022,"gcn_class":25},{"주소":"서울특별시 용산구 한남동 737-60","apartment_name":"스카이빌2","lng":126.9975586048,"lat":37.5352270152,"gcn_class":25},{"주소":"서울특별시 용산구 동빙고동 1-44","apartment_name":"아울스타운","lng":126.9953576054,"lat":37.5284518702,"gcn_class":25},{"주소":"서울특별시 용산구 동빙고동 1-72","apartment_name":"파인힐빌","lng":126.9955585784,"lat":37.5276144868,"gcn_class":25},{"주소":"서울특별시 용산구 동빙고동 1-67","apartment_name":"현대플래티앙Ⅰ","lng":126.9956270434,"lat":37.5272628283,"gcn_class":25},{"주소":"서울특별시 용산구 동빙고동 42-17","apartment_name":"리버힐에이동","lng":126.9962042262,"lat":37.523001558,"gcn_class":25},{"주소":"서울특별시 용산구 동빙고동 1-14","apartment_name":"현대플라티앙2","lng":126.9966650523,"lat":37.5264966501,"gcn_class":25},{"주소":"서울특별시 용산구 동빙고동 1-30","apartment_name":"힐하우스","lng":126.9963920464,"lat":37.5269968784,"gcn_class":25},{"주소":"서울특별시 성동구 금호동3가 1662","apartment_name":"금호한신","lng":127.0184661539,"lat":37.5503878876,"gcn_class":21},{"주소":"서울특별시 성동구 금호동3가 917","apartment_name":"금호1차푸르지오","lng":127.0207253326,"lat":37.55057456,"gcn_class":21},{"주소":"서울특별시 성동구 금호동3가 700","apartment_name":"금호자이2차","lng":127.0219165739,"lat":37.550379549,"gcn_class":21},{"주소":"서울특별시 광진구 중곡동 699","apartment_name":"욱현하이브Ⅲ","lng":127.0878676575,"lat":37.55456601,"gcn_class":28},{"주소":"서울특별시 광진구 중곡동 647-1","apartment_name":"삼보글로벌101동","lng":127.0803029004,"lat":37.5597323089,"gcn_class":28},{"주소":"서울특별시 광진구 중곡동 292","apartment_name":"에스케이","lng":127.0864945488,"lat":37.5688661074,"gcn_class":28},{"주소":"서울특별시 광진구 중곡동 681","apartment_name":"성원","lng":127.0796171074,"lat":37.5711840707,"gcn_class":28},{"주소":"서울특별시 광진구 중곡동 190-26","apartment_name":"중곡2단지","lng":127.0784140713,"lat":37.5667790987,"gcn_class":28},{"주소":"서울특별시 광진구 중곡동 252-8","apartment_name":"진흥아르미","lng":127.0757641241,"lat":37.5623759495,"gcn_class":28},{"주소":"서울특별시 광진구 중곡동 130-5","apartment_name":"주성AURA","lng":127.0860078859,"lat":37.5556350613,"gcn_class":28},{"주소":"서울특별시 광진구 중곡동 683","apartment_name":"중곡동광덕","lng":127.0793775212,"lat":37.5684599829,"gcn_class":28},{"주소":"서울특별시 광진구 중곡동 109-2","apartment_name":"삼성로얄3","lng":127.0926234218,"lat":37.555155772,"gcn_class":28},{"주소":"서울특별시 광진구 중곡동 130-1","apartment_name":"그린트리","lng":127.0852192658,"lat":37.556208217,"gcn_class":28},{"주소":"서울특별시 광진구 중곡동 68-6","apartment_name":"대영(68-6)","lng":127.0915171971,"lat":37.5587977442,"gcn_class":28},{"주소":"서울특별시 광진구 중곡동 609","apartment_name":"삼민","lng":127.083725371,"lat":37.5630936217,"gcn_class":28},{"주소":"서울특별시 광진구 중곡동 90-18","apartment_name":"욱현","lng":127.0905360186,"lat":37.5558689987,"gcn_class":28},{"주소":"서울특별시 광진구 중곡동 135-13","apartment_name":"두리","lng":127.0840477248,"lat":37.5574540546,"gcn_class":28},{"주소":"서울특별시 광진구 중곡동 109-13","apartment_name":"삼성로얄2","lng":127.0922347207,"lat":37.5551027372,"gcn_class":28},{"주소":"서울특별시 광진구 자양동 789","apartment_name":"자양8차현대홈타운","lng":127.072033057,"lat":37.5334859624,"gcn_class":28},{"주소":"서울특별시 광진구 자양동 516","apartment_name":"우성3","lng":127.0716470657,"lat":37.5360143149,"gcn_class":28},{"주소":"서울특별시 광진구 자양동 227-7","apartment_name":"더샵스타시티","lng":127.0726320217,"lat":37.5378031899,"gcn_class":28},{"주소":"서울특별시 광진구 자양동 761","apartment_name":"자양2현대","lng":127.0706236601,"lat":37.5341950903,"gcn_class":28},{"주소":"서울특별시 광진구 자양동 507-6","apartment_name":"이튼타워리버2차","lng":127.0691641038,"lat":37.5355051982,"gcn_class":28},{"주소":"서울특별시 광진구 자양동 793","apartment_name":"우방리버파크","lng":127.0705173501,"lat":37.5312363569,"gcn_class":28},{"주소":"서울특별시 광진구 자양동 786","apartment_name":"자양현대6","lng":127.0716588557,"lat":37.5328457586,"gcn_class":28},{"주소":"서울특별시 광진구 자양동 855","apartment_name":"이튼타워리버3차","lng":127.0680602552,"lat":37.5329892544,"gcn_class":28},{"주소":"서울특별시 광진구 자양동 510-5","apartment_name":"이튼타워리버1차","lng":127.0696801022,"lat":37.5369131585,"gcn_class":28},{"주소":"서울특별시 광진구 자양동 783-1","apartment_name":"자양우성7","lng":127.0745967263,"lat":37.5363526161,"gcn_class":28},{"주소":"서울특별시 광진구 자양동 588-20","apartment_name":"진넥스빌","lng":127.0726746934,"lat":37.5304735228,"gcn_class":28},{"주소":"서울특별시 광진구 자양동 853","apartment_name":"한화꿈에그린","lng":127.0618466093,"lat":37.5336376083,"gcn_class":28},{"주소":"서울특별시 광진구 자양동 520-2","apartment_name":"우성2","lng":127.0739847357,"lat":37.5332682453,"gcn_class":28},{"주소":"서울특별시 광진구 자양동 695","apartment_name":"한양","lng":127.0910007826,"lat":37.5314441762,"gcn_class":28},{"주소":"서울특별시 광진구 자양동 672","apartment_name":"한솔리베르","lng":127.0846786836,"lat":37.5281408522,"gcn_class":28},{"주소":"서울특별시 광진구 자양동 670","apartment_name":"현대3","lng":127.0834467117,"lat":37.5285796158,"gcn_class":28},{"주소":"서울특별시 광진구 자양동 579","apartment_name":"우성1","lng":127.0755735777,"lat":37.5344089874,"gcn_class":28},{"주소":"서울특별시 광진구 자양동 784-1","apartment_name":"대동","lng":127.0683273405,"lat":37.5364211918,"gcn_class":28},{"주소":"서울특별시 광진구 자양동 663-21","apartment_name":"와이엠프라젠스파","lng":127.0841534637,"lat":37.5309063106,"gcn_class":28},{"주소":"서울특별시 광진구 자양동 788","apartment_name":"자양7차현대홈타운","lng":127.0697681969,"lat":37.5329778962,"gcn_class":28},{"주소":"서울특별시 광진구 자양동 854","apartment_name":"광진트라팰리스","lng":127.0679481571,"lat":37.5318922601,"gcn_class":28},{"주소":"서울특별시 광진구 자양동 792","apartment_name":"자양10차현대홈타운","lng":127.0704995213,"lat":37.5334495864,"gcn_class":28},{"주소":"서울특별시 광진구 자양동 578","apartment_name":"우성4","lng":127.0758118925,"lat":37.5352296462,"gcn_class":28},{"주소":"서울특별시 광진구 자양동 24-28","apartment_name":"청정(A)","lng":127.0639491341,"lat":37.5411008252,"gcn_class":28},{"주소":"서울특별시 광진구 자양동 787","apartment_name":"자양삼성","lng":127.0716287222,"lat":37.532213995,"gcn_class":28},{"주소":"서울특별시 광진구 자양동 779-8","apartment_name":"구의현대홈시티","lng":127.0830694905,"lat":37.5375232159,"gcn_class":28},{"주소":"서울특별시 광진구 자양동 830","apartment_name":"한강아남","lng":127.0650766571,"lat":37.5333808894,"gcn_class":28},{"주소":"서울특별시 광진구 자양동 856","apartment_name":"이튼타워리버5차","lng":127.0690310424,"lat":37.5321855387,"gcn_class":28},{"주소":"서울특별시 광진구 자양동 810","apartment_name":"자양힐101동","lng":127.0817302894,"lat":37.5401127232,"gcn_class":28},{"주소":"서울특별시 광진구 자양동 829","apartment_name":"한강현대","lng":127.0668265585,"lat":37.5330883482,"gcn_class":28},{"주소":"서울특별시 광진구 자양동 57-103","apartment_name":"한강극동","lng":127.0644481587,"lat":37.5337685743,"gcn_class":28},{"주소":"서울특별시 광진구 자양동 791","apartment_name":"금강KCC","lng":127.0743507845,"lat":37.5376407511,"gcn_class":28},{"주소":"서울특별시 광진구 자양동 582-15","apartment_name":"금성","lng":127.0738777366,"lat":37.5320381757,"gcn_class":28},{"주소":"서울특별시 광진구 자양동 762","apartment_name":"한라아파트","lng":127.0700385039,"lat":37.5356576727,"gcn_class":28},{"주소":"서울특별시 광진구 자양동 673","apartment_name":"현대강변","lng":127.0859097871,"lat":37.5284372035,"gcn_class":28},{"주소":"서울특별시 광진구 자양동 831-1","apartment_name":"한강성원","lng":127.0660050892,"lat":37.5332585588,"gcn_class":28},{"주소":"서울특별시 광진구 자양동 811","apartment_name":"광진하나플러스","lng":127.0757287582,"lat":37.5295481676,"gcn_class":28},{"주소":"서울특별시 광진구 자양동 553-41","apartment_name":"우성5","lng":127.0712564581,"lat":37.5347888301,"gcn_class":28},{"주소":"서울특별시 광진구 자양동 790","apartment_name":"자양9차현대홈타운","lng":127.0691964167,"lat":37.53374102,"gcn_class":28},{"주소":"서울특별시 광진구 자양동 813","apartment_name":"광진하우스토리한강","lng":127.0897928053,"lat":37.5300176447,"gcn_class":28},{"주소":"서울특별시 광진구 자양동 219-31","apartment_name":"태천해오름주상복합","lng":127.0822542033,"lat":37.5363276187,"gcn_class":28},{"주소":"서울특별시 광진구 자양동 610-47","apartment_name":"도성","lng":127.0772086971,"lat":37.5340778031,"gcn_class":28},{"주소":"서울특별시 광진구 자양동 809","apartment_name":"자양강변I-Park","lng":127.0696501099,"lat":37.5313074199,"gcn_class":28},{"주소":"서울특별시 광진구 자양동 779-11","apartment_name":"구의현대하이엘","lng":127.0829816395,"lat":37.5378869213,"gcn_class":28},{"주소":"서울특별시 광진구 자양동 690-58","apartment_name":"파라다이스리버빌","lng":127.0886212012,"lat":37.5302264808,"gcn_class":28},{"주소":"서울특별시 광진구 자양동 587-6","apartment_name":"대원리버빌","lng":127.0717714589,"lat":37.5306334623,"gcn_class":28},{"주소":"서울특별시 광진구 자양동 624-45","apartment_name":"대원캐슬빌","lng":127.0818109942,"lat":37.5345464684,"gcn_class":28},{"주소":"서울특별시 광진구 자양동 553-314","apartment_name":"대종리버빌","lng":127.0700912622,"lat":37.5323084414,"gcn_class":28},{"주소":"서울특별시 광진구 자양동 678-8","apartment_name":"자양훼밀리","lng":127.0851458368,"lat":37.5310543546,"gcn_class":28},{"주소":"서울특별시 광진구 자양동 767","apartment_name":"스카이빌1차","lng":127.0810423981,"lat":37.540274206,"gcn_class":28},{"주소":"서울특별시 광진구 자양동 770-2","apartment_name":"삼성홈타운","lng":127.0809666657,"lat":37.5391955809,"gcn_class":28},{"주소":"서울특별시 광진구 자양동 769-1","apartment_name":"노블스카이","lng":127.081635313,"lat":37.5393463985,"gcn_class":28},{"주소":"서울특별시 광진구 자양동 24-31","apartment_name":"청정(B)","lng":127.0639111766,"lat":37.5409076714,"gcn_class":28},{"주소":"서울특별시 동대문구 제기동 153","apartment_name":"안암골벽산","lng":127.0319100826,"lat":37.5834528291,"gcn_class":14},{"주소":"서울특별시 동대문구 제기동 252","apartment_name":"이수브라운스톤","lng":127.0340839329,"lat":37.5822001108,"gcn_class":14},{"주소":"서울특별시 동대문구 제기동 1212","apartment_name":"한신아파트","lng":127.0391170512,"lat":37.5888514825,"gcn_class":14},{"주소":"서울특별시 동대문구 제기동 892-66","apartment_name":"현대","lng":127.0357536675,"lat":37.5801884189,"gcn_class":14},{"주소":"서울특별시 동대문구 제기동 1158-17","apartment_name":"동성네스트빌(1158-17)","lng":127.0330967683,"lat":37.5800342227,"gcn_class":14},{"주소":"서울특별시 동대문구 제기동 1158-25","apartment_name":"월드캐슬","lng":127.0334634042,"lat":37.5799154585,"gcn_class":14},{"주소":"서울특별시 동대문구 제기동 1158-40","apartment_name":"어반넥서스","lng":127.0337073274,"lat":37.5788107705,"gcn_class":14},{"주소":"서울특별시 동대문구 제기동 1213","apartment_name":"어진재","lng":127.0379116116,"lat":37.5909696583,"gcn_class":14},{"주소":"서울특별시 동대문구 제기동 120-10","apartment_name":"홍파","lng":127.039975872,"lat":37.5869787519,"gcn_class":14},{"주소":"서울특별시 동대문구 제기동 274-21","apartment_name":"동성네스트빌2","lng":127.0333020143,"lat":37.5802776136,"gcn_class":14},{"주소":"서울특별시 동대문구 제기동 134-73","apartment_name":"효성트럼프","lng":127.0353261487,"lat":37.5851463541,"gcn_class":14},{"주소":"서울특별시 동대문구 제기동 1158-10","apartment_name":"청우","lng":127.0327157796,"lat":37.5796951048,"gcn_class":14},{"주소":"서울특별시 동대문구 청량리동 235-1","apartment_name":"미주","lng":127.0467663679,"lat":37.5840013583,"gcn_class":14},{"주소":"서울특별시 동대문구 청량리동 60","apartment_name":"한신","lng":127.049201457,"lat":37.5879992451,"gcn_class":14},{"주소":"서울특별시 동대문구 청량리동 212","apartment_name":"홍릉동부","lng":127.0461917509,"lat":37.586130541,"gcn_class":14},{"주소":"서울특별시 동대문구 청량리동 738","apartment_name":"현대코아","lng":127.0443901299,"lat":37.5814403911,"gcn_class":14},{"주소":"서울특별시 동대문구 청량리동 425","apartment_name":"광남캐스빌","lng":127.0445149368,"lat":37.5860819009,"gcn_class":14},{"주소":"서울특별시 동대문구 청량리동 949","apartment_name":"상그레빌","lng":127.0409384097,"lat":37.5951233909,"gcn_class":14},{"주소":"서울특별시 중랑구 묵동 13","apartment_name":"신내","lng":127.084874056,"lat":37.6164130659,"gcn_class":22},{"주소":"서울특별시 중랑구 묵동 392","apartment_name":"월드메르디앙","lng":127.0734607881,"lat":37.6130203926,"gcn_class":22},{"주소":"서울특별시 중랑구 묵동 387","apartment_name":"브라운스톤태릉","lng":127.0824272563,"lat":37.6187414214,"gcn_class":22},{"주소":"서울특별시 중랑구 묵동 378","apartment_name":"한국","lng":127.0734918721,"lat":37.6143378888,"gcn_class":22},{"주소":"서울특별시 중랑구 묵동 381","apartment_name":"신안1","lng":127.080992547,"lat":37.6128551779,"gcn_class":22},{"주소":"서울특별시 중랑구 묵동 379","apartment_name":"극동늘푸른","lng":127.0761291322,"lat":37.6146144422,"gcn_class":22},{"주소":"서울특별시 중랑구 묵동 171-4","apartment_name":"공감대","lng":127.078311115,"lat":37.6136159805,"gcn_class":22},{"주소":"서울특별시 중랑구 묵동 170-27","apartment_name":"월등스카이뷰","lng":127.0770509941,"lat":37.6141897486,"gcn_class":22},{"주소":"서울특별시 중랑구 묵동 384","apartment_name":"신안3","lng":127.081779176,"lat":37.6124746885,"gcn_class":22},{"주소":"서울특별시 중랑구 묵동 393","apartment_name":"묵동포레시타","lng":127.075518917,"lat":37.6093953161,"gcn_class":22},{"주소":"서울특별시 중랑구 묵동 386","apartment_name":"금호어울림","lng":127.0800419282,"lat":37.6127259039,"gcn_class":22},{"주소":"서울특별시 중랑구 묵동 388","apartment_name":"동구햇살","lng":127.0744430448,"lat":37.6133092647,"gcn_class":22},{"주소":"서울특별시 중랑구 묵동 390","apartment_name":"SM해그린","lng":127.0801670901,"lat":37.6132622676,"gcn_class":22},{"주소":"서울특별시 중랑구 묵동 169-10","apartment_name":"신도브래뉴","lng":127.0768321716,"lat":37.6150706975,"gcn_class":22},{"주소":"서울특별시 중랑구 묵동 385","apartment_name":"현대아이파크","lng":127.0736595758,"lat":37.6105098435,"gcn_class":22},{"주소":"서울특별시 중랑구 묵동 167","apartment_name":"신도","lng":127.0773728167,"lat":37.6168561028,"gcn_class":22},{"주소":"서울특별시 중랑구 묵동 20","apartment_name":"신내대림아파트","lng":127.088201261,"lat":37.6160515822,"gcn_class":22},{"주소":"서울특별시 중랑구 묵동 164-4","apartment_name":"묵동자이(1단지)","lng":127.0779068195,"lat":37.6148560082,"gcn_class":22},{"주소":"서울특별시 중랑구 묵동 383","apartment_name":"세방","lng":127.0835589411,"lat":37.6154121957,"gcn_class":22},{"주소":"서울특별시 중랑구 묵동 162-17","apartment_name":"헤르만스테이트","lng":127.0787527563,"lat":37.6162266607,"gcn_class":22},{"주소":"서울특별시 중랑구 묵동 377","apartment_name":"세원","lng":127.0743388526,"lat":37.6092210031,"gcn_class":22},{"주소":"서울특별시 중랑구 묵동 382","apartment_name":"신안2","lng":127.0800978931,"lat":37.6141121269,"gcn_class":22},{"주소":"서울특별시 중랑구 묵동 170-1","apartment_name":"묵동자이(2단지)","lng":127.0775526155,"lat":37.6138458731,"gcn_class":22},{"주소":"서울특별시 중랑구 묵동 184-20","apartment_name":"풍산쉐르빌","lng":127.0810253872,"lat":37.6067952829,"gcn_class":22},{"주소":"서울특별시 중랑구 묵동 174-9","apartment_name":"문수해오름","lng":127.0782662701,"lat":37.6131900229,"gcn_class":22},{"주소":"서울특별시 중랑구 묵동 389","apartment_name":"태창네스트빌","lng":127.0772013668,"lat":37.6163425618,"gcn_class":22},{"주소":"서울특별시 중랑구 묵동 391","apartment_name":"효산센터빌","lng":127.077679848,"lat":37.607786008,"gcn_class":22},{"주소":"서울특별시 중랑구 묵동 168-8","apartment_name":"고덕골든빌(101동)","lng":127.076693069,"lat":37.6160487206,"gcn_class":22},{"주소":"서울특별시 중랑구 묵동 380","apartment_name":"신도2","lng":127.0781823072,"lat":37.6171576706,"gcn_class":22},{"주소":"서울특별시 중랑구 묵동 172-3","apartment_name":"대성웰빙","lng":127.0792381638,"lat":37.6139399879,"gcn_class":22},{"주소":"서울특별시 성북구 성북동1가 35-22","apartment_name":"휴아름스튜디오","lng":127.0054145642,"lat":37.5884380675,"gcn_class":13},{"주소":"서울특별시 성북구 성북동1가 115-5","apartment_name":"스타팰리스","lng":127.0031439684,"lat":37.5907512677,"gcn_class":13},{"주소":"서울특별시 성북구 동소문동5가 120","apartment_name":"돈암동일하이빌","lng":127.0145546809,"lat":37.5916186083,"gcn_class":13},{"주소":"서울특별시 성북구 동소문동7가 120","apartment_name":"브라운스톤동선","lng":127.0137920537,"lat":37.5963328688,"gcn_class":13},{"주소":"서울특별시 성북구 동소문동7가 75-10","apartment_name":"샤인힐","lng":127.012991103,"lat":37.5967665168,"gcn_class":13},{"주소":"서울특별시 노원구 월계동 448-3","apartment_name":"삼창","lng":127.0602217704,"lat":37.6185049089,"gcn_class":4},{"주소":"서울특별시 노원구 월계동 938","apartment_name":"건양노블레스빌","lng":127.0664443976,"lat":37.6172053179,"gcn_class":4},{"주소":"서울특별시 노원구 월계동 320-11","apartment_name":"사슴3","lng":127.0596862746,"lat":37.6317295958,"gcn_class":4},{"주소":"서울특별시 노원구 월계동 13","apartment_name":"미성","lng":127.0654157222,"lat":37.6245905662,"gcn_class":4},{"주소":"서울특별시 노원구 월계동 18","apartment_name":"한진한화그랑빌","lng":127.0684275188,"lat":37.6179957025,"gcn_class":4},{"주소":"서울특별시 노원구 월계동 942","apartment_name":"월계역신도브래뉴","lng":127.0586935946,"lat":37.6290827264,"gcn_class":4},{"주소":"서울특별시 노원구 월계동 322-1","apartment_name":"성원(사슴4)","lng":127.0625138405,"lat":37.6294157509,"gcn_class":4},{"주소":"서울특별시 노원구 월계동 781","apartment_name":"청백4","lng":127.0517110472,"lat":37.6316907439,"gcn_class":4},{"주소":"서울특별시 노원구 월계동 556","apartment_name":"주공2","lng":127.0527820514,"lat":37.6281259685,"gcn_class":4},{"주소":"서울특별시 노원구 월계동 941","apartment_name":"성북역신도브래뉴","lng":127.0589975349,"lat":37.6232025554,"gcn_class":4},{"주소":"서울특별시 노원구 월계동 780","apartment_name":"청백3","lng":127.0501855528,"lat":37.631770329,"gcn_class":4},{"주소":"서울특별시 노원구 월계동 922","apartment_name":"서광","lng":127.064911847,"lat":37.6231411563,"gcn_class":4},{"주소":"서울특별시 노원구 월계동 436","apartment_name":"동신","lng":127.0612661206,"lat":37.6175524776,"gcn_class":4},{"주소":"서울특별시 노원구 월계동 949","apartment_name":"꿈의숲SKVIEW","lng":127.0538024771,"lat":37.6217953538,"gcn_class":4},{"주소":"서울특별시 노원구 월계동 943","apartment_name":"세양청마루","lng":127.0606636217,"lat":37.6207224638,"gcn_class":4},{"주소":"서울특별시 노원구 월계동 926","apartment_name":"한일1","lng":127.061560974,"lat":37.6219706775,"gcn_class":4},{"주소":"서울특별시 노원구 월계동 927","apartment_name":"한일2","lng":127.0620045004,"lat":37.6212224456,"gcn_class":4},{"주소":"서울특별시 노원구 월계동 383-40","apartment_name":"성북맨션","lng":127.0601870844,"lat":37.6224071939,"gcn_class":4},{"주소":"서울특별시 노원구 월계동 931","apartment_name":"장은하이빌","lng":127.0617899329,"lat":37.6206406103,"gcn_class":4},{"주소":"서울특별시 노원구 월계동 946","apartment_name":"우남푸르미아","lng":127.0570584555,"lat":37.6328070332,"gcn_class":4},{"주소":"서울특별시 노원구 월계동 930","apartment_name":"우남그랜드","lng":127.0674521535,"lat":37.615848759,"gcn_class":4},{"주소":"서울특별시 노원구 월계동 380-1","apartment_name":"삼능스페이스향","lng":127.0605574335,"lat":37.6240096803,"gcn_class":4},{"주소":"서울특별시 노원구 월계동 496-2","apartment_name":"송암","lng":127.0569669846,"lat":37.6196855577,"gcn_class":4},{"주소":"서울특별시 은평구 진관동 25","apartment_name":"구파발9단지래미안(916~928동)BL3-2","lng":126.9200170195,"lat":37.6438624978,"gcn_class":24},{"주소":"서울특별시 은평구 진관동 107","apartment_name":"마고정3단지센트레빌(310~322동)BL2-3","lng":126.9273402942,"lat":37.63304785,"gcn_class":24},{"주소":"서울특별시 은평구 진관동 102","apartment_name":"박석고개1단지힐스테이트(116~131동)BL2-1","lng":126.9222875288,"lat":37.6330388639,"gcn_class":24},{"주소":"서울특별시 은평구 진관동 19","apartment_name":"상림마을8단지롯데캐슬(810~820동)BL1-1","lng":126.9227864448,"lat":37.6444412428,"gcn_class":24},{"주소":"서울특별시 은평구 진관동 20","apartment_name":"상림마을8단지롯데캐슬(821~830동)BL1-12","lng":126.9226062274,"lat":37.6419845918,"gcn_class":24},{"주소":"서울특별시 은평구 진관동 123","apartment_name":"박석고개1단지힐스테이트(112~115동)BL2-13","lng":126.9213324029,"lat":37.630646294,"gcn_class":24},{"주소":"서울특별시 은평구 진관동 84","apartment_name":"우물골2단지두산위브(223~244동)BL2-7","lng":126.928783215,"lat":37.636440489,"gcn_class":24},{"주소":"서울특별시 은평구 진관동 83","apartment_name":"우물골2단지두산위브(204~208동)BL2-5","lng":126.9276988048,"lat":37.6345080271,"gcn_class":24},{"주소":"서울특별시 은평구 진관동 27","apartment_name":"구파발10단지어울림(1011~1019동)BL3-1","lng":126.9170528519,"lat":37.6437016075,"gcn_class":24},{"주소":"서울특별시 은평구 진관동 105","apartment_name":"마고정3단지센트레빌(323~335동)BL2-2","lng":126.9239743776,"lat":37.6334242332,"gcn_class":24},{"주소":"서울특별시 은평구 진관동 81","apartment_name":"우물골2단지두산위브(245~255동)BL2-6","lng":126.9241122264,"lat":37.6352331402,"gcn_class":24},{"주소":"서울특별시 은평구 진관동 106","apartment_name":"마고정3단지센트레빌(301~309동)BL2-11","lng":126.9259738634,"lat":37.6320493392,"gcn_class":24},{"주소":"서울특별시 은평구 진관동 82","apartment_name":"우물골2단지두산위브(201~203동)BL2-4","lng":126.924551786,"lat":37.6345826404,"gcn_class":24},{"주소":"서울특별시 은평구 진관동 132","apartment_name":"폭포동4단지힐스테이트(423~425동)BL3-10","lng":126.9340863164,"lat":37.6274025388,"gcn_class":24},{"주소":"서울특별시 서대문구 합동 118","apartment_name":"에스케이뷰","lng":126.9659062879,"lat":37.5619316835,"gcn_class":15},{"주소":"서울특별시 서대문구 합동 31-9","apartment_name":"사랑채","lng":126.9647797114,"lat":37.5611069409,"gcn_class":15},{"주소":"서울특별시 서대문구 남가좌동 385","apartment_name":"DMC파크뷰자이1단지","lng":126.9178371544,"lat":37.5722579341,"gcn_class":15},{"주소":"서울특별시 서대문구 남가좌동 376","apartment_name":"남가좌동현대","lng":126.9201259435,"lat":37.5749918612,"gcn_class":15},{"주소":"서울특별시 서대문구 남가좌동 379","apartment_name":"래미안남가좌2차","lng":126.9126580597,"lat":37.5719886027,"gcn_class":15},{"주소":"서울특별시 서대문구 남가좌동 381","apartment_name":"DMC센트레빌","lng":126.915714238,"lat":37.5761635102,"gcn_class":15},{"주소":"서울특별시 서대문구 남가좌동 377","apartment_name":"DMC래미안클라시스","lng":126.9165298805,"lat":37.5777836266,"gcn_class":15},{"주소":"서울특별시 서대문구 남가좌동 105-1","apartment_name":"창덕에버빌","lng":126.9172150217,"lat":37.5694897328,"gcn_class":15},{"주소":"서울특별시 서대문구 남가좌동 380","apartment_name":"쌍용스윗닷홈","lng":126.9190673319,"lat":37.5753530697,"gcn_class":15},{"주소":"서울특별시 서대문구 남가좌동 132-29","apartment_name":"엠화일비동","lng":126.9204408681,"lat":37.5718050755,"gcn_class":15},{"주소":"서울특별시 마포구 신공덕동 159","apartment_name":"신공덕래미안2차","lng":126.9578974474,"lat":37.5464420286,"gcn_class":5},{"주소":"서울특별시 마포구 신공덕동 170","apartment_name":"브라운스톤공덕아파트","lng":126.9552973632,"lat":37.5415364831,"gcn_class":5},{"주소":"서울특별시 마포구 신공덕동 161","apartment_name":"신공덕래미안3차","lng":126.9568270214,"lat":37.5455442471,"gcn_class":5},{"주소":"서울특별시 마포구 신공덕동 174","apartment_name":"공덕아이파크","lng":126.956053529,"lat":37.544674047,"gcn_class":5},{"주소":"서울특별시 마포구 신공덕동 155","apartment_name":"신공덕1차삼성래미안1아파트","lng":126.9556403698,"lat":37.5433755525,"gcn_class":5},{"주소":"서울특별시 마포구 신공덕동 172","apartment_name":"펜트라우스","lng":126.9541042797,"lat":37.5433912736,"gcn_class":5},{"주소":"서울특별시 마포구 신공덕동 171","apartment_name":"kcc웰츠","lng":126.9524638798,"lat":37.542841015,"gcn_class":3},{"주소":"서울특별시 마포구 신공덕동 5-5","apartment_name":"뉴마인","lng":126.957278599,"lat":37.5475929225,"gcn_class":5},{"주소":"서울특별시 마포구 신공덕동 167","apartment_name":"대우메트로디오빌","lng":126.9528698055,"lat":37.5434945825,"gcn_class":5},{"주소":"서울특별시 마포구 신공덕동 168","apartment_name":"신공덕e편한세상","lng":126.9570755611,"lat":37.5419152924,"gcn_class":5},{"주소":"서울특별시 마포구 신공덕동 173","apartment_name":"대우월드마크마포","lng":126.9533693608,"lat":37.5424449362,"gcn_class":5},{"주소":"서울특별시 마포구 신공덕동 15-80","apartment_name":"공덕프로포즈Ⅱ","lng":126.9550260815,"lat":37.545019734,"gcn_class":5},{"주소":"서울특별시 마포구 마포동 253","apartment_name":"마포쌍용황금아파트","lng":126.9457649754,"lat":37.5371402049,"gcn_class":5},{"주소":"서울특별시 마포구 마포동 442","apartment_name":"보성","lng":126.9464066039,"lat":37.5360622706,"gcn_class":5},{"주소":"서울특별시 마포구 마포동 350","apartment_name":"강변한신코아","lng":126.9439319464,"lat":37.5363258356,"gcn_class":5},{"주소":"서울특별시 마포구 마포동 449","apartment_name":"비체힐리버뷰","lng":126.9454144714,"lat":37.5363348193,"gcn_class":5},{"주소":"서울특별시 마포구 상수동 398","apartment_name":"래미안밤섬리베뉴Ⅱ","lng":126.9272602427,"lat":37.5466753555,"gcn_class":5},{"주소":"서울특별시 마포구 상수동 395","apartment_name":"밤섬리버베르빌","lng":126.9225130774,"lat":37.5445858024,"gcn_class":5},{"주소":"서울특별시 마포구 상수동 402","apartment_name":"래미안밤섬리베뉴Ⅰ","lng":126.9254874152,"lat":37.5466237942,"gcn_class":5},{"주소":"서울특별시 마포구 상수동 396","apartment_name":"상수두산위브","lng":126.9243618474,"lat":37.5469254537,"gcn_class":5},{"주소":"서울특별시 마포구 상수동 363","apartment_name":"상수동월드메르디앙","lng":126.9232429131,"lat":37.5447218795,"gcn_class":5},{"주소":"서울특별시 마포구 서교동 490","apartment_name":"메세나폴리스","lng":126.9137687963,"lat":37.5507467155,"gcn_class":3},{"주소":"서울특별시 마포구 서교동 487","apartment_name":"대우미래사랑","lng":126.9167894198,"lat":37.5573711251,"gcn_class":5},{"주소":"서울특별시 마포구 서교동 465-1","apartment_name":"광남벨라스(1차)","lng":126.916207587,"lat":37.5547376391,"gcn_class":5},{"주소":"서울특별시 마포구 서교동 329-2","apartment_name":"대아","lng":126.9290497124,"lat":37.5557945451,"gcn_class":5},{"주소":"서울특별시 마포구 서교동 247-72","apartment_name":"함성참좋은","lng":126.9115747747,"lat":37.5577965699,"gcn_class":5},{"주소":"서울특별시 마포구 서교동 478-4","apartment_name":"청기와","lng":126.9144723255,"lat":37.5553242057,"gcn_class":5},{"주소":"서울특별시 마포구 서교동 458-22","apartment_name":"광남벨라스2차","lng":126.9151045739,"lat":37.5561662836,"gcn_class":5},{"주소":"서울특별시 마포구 서교동 458-6","apartment_name":"에덴지우","lng":126.914820635,"lat":37.5568484944,"gcn_class":5},{"주소":"서울특별시 마포구 서교동 486","apartment_name":"서교푸르지오","lng":126.9236944415,"lat":37.5537936941,"gcn_class":5},{"주소":"서울특별시 마포구 서교동 470-20","apartment_name":"신세계드림빌","lng":126.9120658755,"lat":37.5576778249,"gcn_class":5},{"주소":"서울특별시 마포구 서교동 453-14","apartment_name":"엘림","lng":126.9158287685,"lat":37.5577837316,"gcn_class":5},{"주소":"서울특별시 마포구 상암동 1655","apartment_name":"상암월드컵파크4단지","lng":126.8886887732,"lat":37.5776864156,"gcn_class":5},{"주소":"서울특별시 마포구 상암동 1643","apartment_name":"상암월드컵파크3단지","lng":126.8897798706,"lat":37.5726880929,"gcn_class":5},{"주소":"서울특별시 마포구 상암동 1658","apartment_name":"상암월드컵파크5단지","lng":126.8859705596,"lat":37.5802112885,"gcn_class":5},{"주소":"서울특별시 마포구 상암동 1630","apartment_name":"DMC상암센트럴파크1단지","lng":126.8961374216,"lat":37.5742846533,"gcn_class":5},{"주소":"서울특별시 양천구 신월동 1053","apartment_name":"수명산SKVIEW","lng":126.8293382142,"lat":37.5440526287,"gcn_class":1},{"주소":"서울특별시 양천구 신월동 1060","apartment_name":"동원데자뷰","lng":126.8279592719,"lat":37.5432748681,"gcn_class":1},{"주소":"서울특별시 양천구 신월동 447-3","apartment_name":"상아아름","lng":126.8416534552,"lat":37.5253142103,"gcn_class":1},{"주소":"서울특별시 양천구 신월동 1055","apartment_name":"신정두산위브","lng":126.8456762875,"lat":37.5189928802,"gcn_class":1},{"주소":"서울특별시 양천구 신월동 507-1","apartment_name":"대림(주상복합)","lng":126.8461973437,"lat":37.52277894,"gcn_class":1},{"주소":"서울특별시 양천구 신월동 1063","apartment_name":"롯데캐슬","lng":126.8473021669,"lat":37.5185331396,"gcn_class":1},{"주소":"서울특별시 양천구 신월동 591-1","apartment_name":"신안약수","lng":126.8475843806,"lat":37.5167049193,"gcn_class":1},{"주소":"서울특별시 양천구 신월동 533-1","apartment_name":"신월동금용","lng":126.8423085197,"lat":37.5207194374,"gcn_class":1},{"주소":"서울특별시 양천구 신월동 607-1","apartment_name":"동방","lng":126.8464683954,"lat":37.5214506752,"gcn_class":1},{"주소":"서울특별시 양천구 신월동 18-17","apartment_name":"수명산태승훼미리","lng":126.8309945438,"lat":37.5413168762,"gcn_class":1},{"주소":"서울특별시 양천구 신월동 87-21","apartment_name":"흥양훼미리","lng":126.833966124,"lat":37.5375471668,"gcn_class":1},{"주소":"서울특별시 양천구 신월동 1037","apartment_name":"장수마을","lng":126.8445180994,"lat":37.5215411974,"gcn_class":1},{"주소":"서울특별시 양천구 신월동 1036","apartment_name":"수명산롯데캐슬","lng":126.8284966482,"lat":37.5445574101,"gcn_class":1},{"주소":"서울특별시 양천구 신월동 1043","apartment_name":"길훈엔트런스빌","lng":126.8355528757,"lat":37.5315747668,"gcn_class":1},{"주소":"서울특별시 양천구 신월동 1049","apartment_name":"장수마을2단지동원데쟈뷰","lng":126.8458565642,"lat":37.5223085331,"gcn_class":1},{"주소":"서울특별시 양천구 신월동 494-4","apartment_name":"예건미예뜰1동","lng":126.8470582939,"lat":37.5237939552,"gcn_class":1},{"주소":"서울특별시 양천구 신월동 475","apartment_name":"서울가든","lng":126.848649985,"lat":37.525297795,"gcn_class":1},{"주소":"서울특별시 양천구 신월동 491-1","apartment_name":"신월대림","lng":126.844873559,"lat":37.5237120881,"gcn_class":1},{"주소":"서울특별시 양천구 신월동 467-3","apartment_name":"태진","lng":126.8467260138,"lat":37.5261866745,"gcn_class":1},{"주소":"서울특별시 양천구 신월동 1052","apartment_name":"동도센트리움","lng":126.8463419747,"lat":37.5237432001,"gcn_class":1},{"주소":"서울특별시 양천구 신월동 458-1","apartment_name":"새롬","lng":126.8451021484,"lat":37.5264656682,"gcn_class":1},{"주소":"서울특별시 양천구 신월동 1047","apartment_name":"방주기픈샘2","lng":126.8427308885,"lat":37.5254735053,"gcn_class":1},{"주소":"서울특별시 양천구 신월동 1030","apartment_name":"방주기픈샘","lng":126.8428572088,"lat":37.5250628169,"gcn_class":1},{"주소":"서울특별시 양천구 신월동 510-3","apartment_name":"두원빌드피아(510-3)","lng":126.8444504342,"lat":37.5221493747,"gcn_class":1},{"주소":"서울특별시 양천구 신월동 446-2","apartment_name":"청솔","lng":126.8422195045,"lat":37.5242597149,"gcn_class":1},{"주소":"서울특별시 양천구 신월동 506-1","apartment_name":"우당","lng":126.8475773541,"lat":37.5229954377,"gcn_class":1},{"주소":"서울특별시 양천구 신월동 413-3","apartment_name":"에이원","lng":126.8398847232,"lat":37.5255167133,"gcn_class":1},{"주소":"서울특별시 양천구 신월동 604-4","apartment_name":"삼구","lng":126.8465091116,"lat":37.5196320553,"gcn_class":1},{"주소":"서울특별시 양천구 신월동 602-3","apartment_name":"청정","lng":126.8454242725,"lat":37.5201933164,"gcn_class":1},{"주소":"서울특별시 양천구 신월동 72-5","apartment_name":"우진(72-5)","lng":126.8322312137,"lat":37.5383225475,"gcn_class":1},{"주소":"서울특별시 양천구 신월동 1024","apartment_name":"신월휘버스","lng":126.8461538008,"lat":37.5199644233,"gcn_class":1},{"주소":"서울특별시 양천구 신월동 1059","apartment_name":"상진지오벨리","lng":126.8315301648,"lat":37.5398259478,"gcn_class":1},{"주소":"서울특별시 양천구 신월동 507-3","apartment_name":"나이아가라","lng":126.8472129268,"lat":37.5229110836,"gcn_class":1},{"주소":"서울특별시 양천구 신월동 241-9","apartment_name":"성호그린","lng":126.8381913981,"lat":37.5273614579,"gcn_class":1},{"주소":"서울특별시 양천구 신월동 1056","apartment_name":"삼익4차플라주","lng":126.8446722925,"lat":37.520828077,"gcn_class":1},{"주소":"서울특별시 양천구 신월동 1040","apartment_name":"신월2차미소지움","lng":126.8452689476,"lat":37.5216230033,"gcn_class":1},{"주소":"서울특별시 양천구 신월동 1042","apartment_name":"삼익플라주","lng":126.8427607185,"lat":37.5195611713,"gcn_class":1},{"주소":"서울특별시 양천구 신월동 426-3","apartment_name":"방주아크빌","lng":126.8406216602,"lat":37.5247623106,"gcn_class":1},{"주소":"서울특별시 양천구 신월동 1070","apartment_name":"수명산그린시아","lng":126.828570269,"lat":37.5434895636,"gcn_class":1},{"주소":"서울특별시 양천구 신월동 492-1","apartment_name":"동양브로미(101동)A","lng":126.8455876855,"lat":37.524002786,"gcn_class":1},{"주소":"서울특별시 양천구 신월동 470-1","apartment_name":"대외","lng":126.8478555929,"lat":37.5264165388,"gcn_class":1},{"주소":"서울특별시 양천구 신월동 514-3","apartment_name":"해태","lng":126.8430578859,"lat":37.5217737068,"gcn_class":1},{"주소":"서울특별시 양천구 신월동 494-8","apartment_name":"제일캐슬","lng":126.8470024297,"lat":37.5235626858,"gcn_class":1},{"주소":"서울특별시 양천구 신월동 446-5","apartment_name":"경희","lng":126.842581877,"lat":37.5239225932,"gcn_class":1},{"주소":"서울특별시 양천구 신월동 465-5","apartment_name":"신월보성","lng":126.8445023412,"lat":37.5258636419,"gcn_class":1},{"주소":"서울특별시 양천구 신월동 492-24","apartment_name":"동양브로미(102동)A","lng":126.8458778037,"lat":37.5238617978,"gcn_class":1},{"주소":"서울특별시 양천구 신월동 444-7","apartment_name":"두원빌드피아(444-7)","lng":126.8424311466,"lat":37.5226540521,"gcn_class":1},{"주소":"서울특별시 양천구 신월동 467-12","apartment_name":"한우리(101동)","lng":126.8460967516,"lat":37.5261503567,"gcn_class":1},{"주소":"서울특별시 양천구 신월동 91-10","apartment_name":"우진","lng":126.8338538911,"lat":37.535758615,"gcn_class":1},{"주소":"서울특별시 양천구 신월동 481-9","apartment_name":"대신","lng":126.8455079057,"lat":37.5244543537,"gcn_class":1},{"주소":"서울특별시 양천구 신월동 488-3","apartment_name":"남영시티빌","lng":126.8436671102,"lat":37.5235881413,"gcn_class":1},{"주소":"서울특별시 양천구 신월동 1020","apartment_name":"신성미소지움","lng":126.846600016,"lat":37.5226370153,"gcn_class":1},{"주소":"서울특별시 양천구 신월동 113-14","apartment_name":"정원","lng":126.8355278324,"lat":37.5326234061,"gcn_class":1},{"주소":"서울특별시 양천구 신월동 21-4","apartment_name":"거산","lng":126.8318416899,"lat":37.5402182362,"gcn_class":1},{"주소":"서울특별시 양천구 신월동 480-4","apartment_name":"예지보금자리74차","lng":126.8459245544,"lat":37.5248924243,"gcn_class":1},{"주소":"서울특별시 양천구 신월동 492-23","apartment_name":"동양브로미(102동)B","lng":126.8458278824,"lat":37.5240427438,"gcn_class":1},{"주소":"서울특별시 양천구 신월동 20-28","apartment_name":"세진","lng":126.8329243985,"lat":37.5409396712,"gcn_class":1},{"주소":"서울특별시 양천구 신월동 1069","apartment_name":"동서","lng":126.8429818427,"lat":37.5231351096,"gcn_class":1},{"주소":"서울특별시 양천구 신월동 467-2","apartment_name":"한우리아파트","lng":126.8458403775,"lat":37.5261069545,"gcn_class":1},{"주소":"서울특별시 양천구 신월동 516-7","apartment_name":"이형원앙","lng":126.8426156888,"lat":37.5213975808,"gcn_class":1},{"주소":"서울특별시 양천구 신월동 457-15","apartment_name":"보람","lng":126.8475208687,"lat":37.5266818124,"gcn_class":1},{"주소":"서울특별시 구로구 가리봉동 139","apartment_name":"효성","lng":126.8953044123,"lat":37.4788964928,"gcn_class":18},{"주소":"서울특별시 구로구 가리봉동 137-7","apartment_name":"미래하이츠","lng":126.8939636821,"lat":37.4791210901,"gcn_class":18},{"주소":"서울특별시 구로구 개봉동 313-32","apartment_name":"동서아파트(313-32)","lng":126.8521114257,"lat":37.4820293532,"gcn_class":18},{"주소":"서울특별시 구로구 개봉동 475","apartment_name":"영화","lng":126.8600061607,"lat":37.4961874854,"gcn_class":18},{"주소":"서울특별시 구로구 개봉동 470","apartment_name":"삼환","lng":126.8544514362,"lat":37.4947561016,"gcn_class":18},{"주소":"서울특별시 구로구 개봉동 491","apartment_name":"LIPe-푸른아파트","lng":126.8500965215,"lat":37.4930730724,"gcn_class":18},{"주소":"서울특별시 구로구 개봉동 477","apartment_name":"대상","lng":126.8497816563,"lat":37.4823141961,"gcn_class":18},{"주소":"서울특별시 구로구 개봉동 478","apartment_name":"한진","lng":126.8519397682,"lat":37.484679543,"gcn_class":18},{"주소":"서울특별시 구로구 개봉동 476","apartment_name":"한마을","lng":126.8625015766,"lat":37.4952644522,"gcn_class":18},{"주소":"서울특별시 구로구 개봉동 492","apartment_name":"개봉푸르지오","lng":126.8481476972,"lat":37.5003989142,"gcn_class":18},{"주소":"서울특별시 구로구 개봉동 483","apartment_name":"율포그레이스빌","lng":126.8556634056,"lat":37.4948353454,"gcn_class":18},{"주소":"서울특별시 구로구 개봉동 60-101","apartment_name":"거성푸르뫼","lng":126.8434925956,"lat":37.5009278555,"gcn_class":18},{"주소":"서울특별시 구로구 개봉동 487","apartment_name":"개봉동상우","lng":126.8621403951,"lat":37.4935398656,"gcn_class":18},{"주소":"서울특별시 구로구 개봉동 479","apartment_name":"진로","lng":126.8508849042,"lat":37.4905157521,"gcn_class":18},{"주소":"서울특별시 구로구 개봉동 175-8","apartment_name":"청실","lng":126.8597674018,"lat":37.4954826155,"gcn_class":18},{"주소":"서울특별시 구로구 개봉동 473","apartment_name":"상우","lng":126.860969951,"lat":37.4936986929,"gcn_class":18},{"주소":"서울특별시 구로구 개봉동 471","apartment_name":"삼호","lng":126.8572667453,"lat":37.4943248911,"gcn_class":18},{"주소":"서울특별시 구로구 개봉동 361-1","apartment_name":"제일아파트","lng":126.8534426138,"lat":37.4859700378,"gcn_class":18},{"주소":"서울특별시 구로구 개봉동 335-1","apartment_name":"동인","lng":126.8488201219,"lat":37.4936157439,"gcn_class":18},{"주소":"서울특별시 구로구 개봉동 489","apartment_name":"개봉동현대아이파크","lng":126.8597862453,"lat":37.4900606509,"gcn_class":18},{"주소":"서울특별시 구로구 개봉동 47-1","apartment_name":"건영","lng":126.8407673297,"lat":37.501301194,"gcn_class":18},{"주소":"서울특별시 구로구 개봉동 170-30","apartment_name":"신개봉삼환","lng":126.8579420991,"lat":37.496635164,"gcn_class":18},{"주소":"서울특별시 구로구 개봉동 70-12","apartment_name":"동도센트리움(70-12)","lng":126.8467217099,"lat":37.4982578155,"gcn_class":18},{"주소":"서울특별시 구로구 개봉동 60-82","apartment_name":"거성푸르뫼2","lng":126.8435426425,"lat":37.5000857523,"gcn_class":18},{"주소":"서울특별시 구로구 개봉동 488","apartment_name":"영화아이닉스","lng":126.849247128,"lat":37.4828042943,"gcn_class":18},{"주소":"서울특별시 구로구 개봉동 322-12","apartment_name":"중앙힐","lng":126.8519850153,"lat":37.4917753012,"gcn_class":18},{"주소":"서울특별시 구로구 개봉동 484","apartment_name":"고운아파트","lng":126.8505792009,"lat":37.4990036544,"gcn_class":18},{"주소":"서울특별시 구로구 개봉동 318-1","apartment_name":"신양지(나동)","lng":126.8511909886,"lat":37.4935987517,"gcn_class":18},{"주소":"서울특별시 구로구 개봉동 318-36","apartment_name":"신양지(가동)","lng":126.8512184382,"lat":37.4933852478,"gcn_class":18},{"주소":"서울특별시 구로구 개봉동 367-2","apartment_name":"태경하이빌","lng":126.8543447339,"lat":37.4848904849,"gcn_class":18},{"주소":"서울특별시 구로구 개봉동 61-2","apartment_name":"수영힐(가동)","lng":126.8447538314,"lat":37.5015065234,"gcn_class":18},{"주소":"서울특별시 구로구 개봉동 63-15","apartment_name":"수영힐(나동)","lng":126.8446653408,"lat":37.5012044802,"gcn_class":18},{"주소":"서울특별시 금천구 독산동 1143","apartment_name":"이랜드해가든","lng":126.8930696389,"lat":37.4610128607,"gcn_class":19},{"주소":"서울특별시 금천구 독산동 1088","apartment_name":"독산주공14단지","lng":126.8864838316,"lat":37.4600847128,"gcn_class":19},{"주소":"서울특별시 금천구 독산동 1140","apartment_name":"독산동중앙하이츠빌","lng":126.8885599468,"lat":37.4648129442,"gcn_class":19},{"주소":"서울특별시 금천구 독산동 1052-5","apartment_name":"리치힐(1052-5)","lng":126.8990771058,"lat":37.4643833316,"gcn_class":19},{"주소":"서울특별시 금천구 독산동 1136","apartment_name":"진도3차아파트","lng":126.893292291,"lat":37.4683432379,"gcn_class":19},{"주소":"서울특별시 금천구 독산동 332-14","apartment_name":"계룡아파트","lng":126.8927863257,"lat":37.4671488507,"gcn_class":19},{"주소":"서울특별시 금천구 독산동 1131","apartment_name":"라이프","lng":126.892269962,"lat":37.461080341,"gcn_class":19},{"주소":"서울특별시 금천구 독산동 1006-132","apartment_name":"삼환아파트","lng":126.8922105361,"lat":37.4657849173,"gcn_class":19},{"주소":"서울특별시 금천구 독산동 711-2","apartment_name":"금천현대","lng":126.8903369827,"lat":37.4622669072,"gcn_class":19},{"주소":"서울특별시 금천구 독산동 293-10","apartment_name":"독산현대","lng":126.8950057757,"lat":37.4674569169,"gcn_class":19},{"주소":"서울특별시 금천구 독산동 1132","apartment_name":"목화101","lng":126.9046924719,"lat":37.4766954342,"gcn_class":19},{"주소":"서울특별시 금천구 독산동 1133","apartment_name":"진도2차","lng":126.8922176962,"lat":37.4700097626,"gcn_class":19},{"주소":"서울특별시 금천구 독산동 961-13","apartment_name":"목화102","lng":126.9041080045,"lat":37.4767650599,"gcn_class":19},{"주소":"서울특별시 금천구 독산동 965-1","apartment_name":"예전이룸(965-1)","lng":126.9004455919,"lat":37.4766875174,"gcn_class":19},{"주소":"서울특별시 금천구 독산동 1139","apartment_name":"청광플러스원","lng":126.8941323938,"lat":37.4712461479,"gcn_class":19},{"주소":"서울특별시 금천구 독산동 1003-21","apartment_name":"태영아파트","lng":126.8904772754,"lat":37.4662058977,"gcn_class":19},{"주소":"서울특별시 금천구 독산동 1142","apartment_name":"한아마인드","lng":126.894103206,"lat":37.4670144361,"gcn_class":19},{"주소":"서울특별시 금천구 독산동 1093-5","apartment_name":"각산","lng":126.8870247301,"lat":37.4559923838,"gcn_class":19},{"주소":"서울특별시 금천구 독산동 1002","apartment_name":"진도1차","lng":126.8907080548,"lat":37.4677901784,"gcn_class":19},{"주소":"서울특별시 금천구 독산동 957","apartment_name":"푸른터","lng":126.9014186534,"lat":37.4780630931,"gcn_class":19},{"주소":"서울특별시 금천구 독산동 1135","apartment_name":"백운","lng":126.8931279802,"lat":37.4646538105,"gcn_class":19},{"주소":"서울특별시 금천구 독산동 1069","apartment_name":"호정타워","lng":126.900279218,"lat":37.4611676511,"gcn_class":19},{"주소":"서울특별시 금천구 독산동 1028","apartment_name":"대덕트윈빌","lng":126.8991065129,"lat":37.4673141652,"gcn_class":19},{"주소":"서울특별시 금천구 독산동 883-22","apartment_name":"동은6차","lng":126.9065762541,"lat":37.4772758372,"gcn_class":19},{"주소":"서울특별시 금천구 독산동 958","apartment_name":"을미월드힐","lng":126.9014609762,"lat":37.4785494931,"gcn_class":19},{"주소":"서울특별시 금천구 독산동 1006-139","apartment_name":"리버스타운","lng":126.8926299275,"lat":37.4649012271,"gcn_class":19},{"주소":"서울특별시 금천구 독산동 303-1","apartment_name":"은탑로얄클라스","lng":126.8914230816,"lat":37.4721376716,"gcn_class":19},{"주소":"서울특별시 영등포구 당산동4가 96","apartment_name":"당산반도유보라팰리스","lng":126.9012858854,"lat":37.5273143682,"gcn_class":26},{"주소":"서울특별시 영등포구 당산동4가 30-1","apartment_name":"당산현대5차","lng":126.9008127469,"lat":37.5296404476,"gcn_class":26},{"주소":"서울특별시 영등포구 당산동4가 88","apartment_name":"당산현대3차","lng":126.8963832716,"lat":37.5310603162,"gcn_class":27},{"주소":"서울특별시 영등포구 당산동4가 94-1","apartment_name":"당산삼성2차","lng":126.8984323344,"lat":37.5278539912,"gcn_class":26},{"주소":"서울특별시 영등포구 당산동4가 98","apartment_name":"브라운스톤당산","lng":126.901882779,"lat":37.52756165,"gcn_class":26},{"주소":"서울특별시 영등포구 당산동4가 95","apartment_name":"당산금호어울림","lng":126.9012425314,"lat":37.528448783,"gcn_class":26},{"주소":"서울특별시 영등포구 당산동4가 29","apartment_name":"한강아파트","lng":126.9027440928,"lat":37.5279617764,"gcn_class":26},{"주소":"서울특별시 영등포구 당산동4가 92","apartment_name":"현대2","lng":126.8961350115,"lat":37.5289668923,"gcn_class":27},{"주소":"서울특별시 영등포구 문래동3가 95","apartment_name":"문래동원데자뷰","lng":126.8920036071,"lat":37.5172752963,"gcn_class":26},{"주소":"서울특별시 영등포구 문래동3가 54","apartment_name":"문래자이","lng":126.8967777409,"lat":37.5161435802,"gcn_class":26},{"주소":"서울특별시 영등포구 문래동3가 94","apartment_name":"문래힐스테이트","lng":126.8908636321,"lat":37.5183596868,"gcn_class":26},{"주소":"서울특별시 영등포구 문래동3가 97","apartment_name":"문래금호어울림","lng":126.8976150784,"lat":37.5190741908,"gcn_class":26},{"주소":"서울특별시 영등포구 문래동3가 96","apartment_name":"태영데시앙","lng":126.8972974778,"lat":37.5195433375,"gcn_class":26},{"주소":"서울특별시 영등포구 문래동3가 77-2","apartment_name":"문래공원한신","lng":126.892997679,"lat":37.5175839837,"gcn_class":27},{"주소":"서울특별시 영등포구 문래동3가 13","apartment_name":"문래해태","lng":126.9013904973,"lat":37.5171977307,"gcn_class":26},{"주소":"서울특별시 영등포구 문래동3가 78","apartment_name":"문래우정","lng":126.8929631006,"lat":37.5155794906,"gcn_class":27},{"주소":"서울특별시 영등포구 문래동3가 93-1","apartment_name":"문래건영","lng":126.8924593225,"lat":37.5183980015,"gcn_class":26},{"주소":"서울특별시 영등포구 양평동1가 20","apartment_name":"신동아","lng":126.8865399797,"lat":37.5221506354,"gcn_class":27},{"주소":"서울특별시 영등포구 양평동1가 14-1","apartment_name":"한신공영","lng":126.8881181335,"lat":37.521637128,"gcn_class":26},{"주소":"서울특별시 영등포구 양평동1가 270","apartment_name":"창건애드웰","lng":126.8891130572,"lat":37.5249144704,"gcn_class":26},{"주소":"서울특별시 영등포구 양평동1가 269","apartment_name":"이너스삼성","lng":126.8889054141,"lat":37.5241122033,"gcn_class":26},{"주소":"서울특별시 동작구 상도동 408","apartment_name":"상도동삼호아파트","lng":126.9574311991,"lat":37.493529559,"gcn_class":12},{"주소":"서울특별시 동작구 상도동 521","apartment_name":"포스코더샵","lng":126.9429735466,"lat":37.5020771686,"gcn_class":12},{"주소":"서울특별시 동작구 상도동 533","apartment_name":"힐스테이트 상도 프레스티지","lng":126.9489463546,"lat":37.4965353795,"gcn_class":12},{"주소":"서울특별시 동작구 상도동 409","apartment_name":"동아","lng":126.9400448075,"lat":37.4962484614,"gcn_class":12},{"주소":"서울특별시 동작구 상도동 532","apartment_name":"씨티아모리움","lng":126.9514140832,"lat":37.4974063419,"gcn_class":12},{"주소":"서울특별시 동작구 상도동 416","apartment_name":"아이파크","lng":126.9427033629,"lat":37.5007519287,"gcn_class":12},{"주소":"서울특별시 동작구 상도동 527","apartment_name":"이수브라운스톤상도(527-0)","lng":126.9438242281,"lat":37.5060045181,"gcn_class":12},{"주소":"서울특별시 동작구 상도동 431","apartment_name":"래미안상도3차","lng":126.9547332178,"lat":37.4993523924,"gcn_class":12},{"주소":"서울특별시 동작구 상도동 407","apartment_name":"현대(관악)","lng":126.9575078934,"lat":37.4924854094,"gcn_class":12},{"주소":"서울특별시 동작구 상도동 263-2","apartment_name":"성대아파트","lng":126.9356802242,"lat":37.4972978205,"gcn_class":12},{"주소":"서울특별시 동작구 상도동 421","apartment_name":"삼성래미안2","lng":126.9582764404,"lat":37.498056338,"gcn_class":12},{"주소":"서울특별시 동작구 상도동 415","apartment_name":"중앙하이츠빌","lng":126.9497917692,"lat":37.4990754085,"gcn_class":12},{"주소":"서울특별시 동작구 상도동 535","apartment_name":"두산위브트레지움2차","lng":126.9427753893,"lat":37.5038799849,"gcn_class":12},{"주소":"서울특별시 동작구 상도동 450","apartment_name":"상도동래미안1차","lng":126.9339853741,"lat":37.504790641,"gcn_class":12},{"주소":"서울특별시 동작구 상도동 363-164","apartment_name":"상도휴엔하임","lng":126.9379430352,"lat":37.5049868629,"gcn_class":12},{"주소":"서울특별시 동작구 상도동 412","apartment_name":"상도현대","lng":126.959411308,"lat":37.4940074292,"gcn_class":12},{"주소":"서울특별시 동작구 상도동 411","apartment_name":"대림아파트","lng":126.9534775802,"lat":37.4929953028,"gcn_class":12},{"주소":"서울특별시 동작구 상도동 409-3","apartment_name":"종인아네스트(409-3)","lng":126.9395742266,"lat":37.4962964255,"gcn_class":12},{"주소":"서울특별시 동작구 상도동 458","apartment_name":"상도1차갑을명가","lng":126.9340775398,"lat":37.4936083058,"gcn_class":12},{"주소":"서울특별시 동작구 상도동 530","apartment_name":"롯데캐슬비엔","lng":126.9435797171,"lat":37.496825315,"gcn_class":12},{"주소":"서울특별시 동작구 상도동 459","apartment_name":"상도2차갑을명가","lng":126.9352459163,"lat":37.4935684968,"gcn_class":12},{"주소":"서울특별시 동작구 상도동 283-75","apartment_name":"상도타워A동","lng":126.9365771804,"lat":37.4939999904,"gcn_class":12},{"주소":"서울특별시 동작구 상도동 529","apartment_name":"상도두산위브","lng":126.9433252559,"lat":37.5046327697,"gcn_class":12},{"주소":"서울특별시 동작구 상도동 534","apartment_name":"상도더샵2차","lng":126.9434527847,"lat":37.5025918732,"gcn_class":12},{"주소":"서울특별시 동작구 상도동 410","apartment_name":"현대201동","lng":126.961352912,"lat":37.4931092357,"gcn_class":12},{"주소":"서울특별시 동작구 상도동 466","apartment_name":"수정","lng":126.9525623696,"lat":37.4991716998,"gcn_class":12},{"주소":"서울특별시 동작구 상도동 445","apartment_name":"경향렉스빌","lng":126.94193529,"lat":37.4952970417,"gcn_class":12},{"주소":"서울특별시 동작구 상도동 77-21","apartment_name":"정호힐사이드","lng":126.9530502288,"lat":37.4993586732,"gcn_class":12},{"주소":"서울특별시 동작구 상도동 520","apartment_name":"삼환나우빌(520-0)","lng":126.9564654624,"lat":37.498264718,"gcn_class":12},{"주소":"서울특별시 동작구 상도동 7-92","apartment_name":"종인아네스트","lng":126.9539089401,"lat":37.5070379214,"gcn_class":12},{"주소":"서울특별시 동작구 상도동 350-5","apartment_name":"샤인","lng":126.9320992265,"lat":37.5020783564,"gcn_class":12},{"주소":"서울특별시 동작구 상도동 211-1","apartment_name":"약수맨션","lng":126.9443163607,"lat":37.4984883816,"gcn_class":12},{"주소":"서울특별시 동작구 상도동 460","apartment_name":"상도팰리스","lng":126.9539705896,"lat":37.5035219527,"gcn_class":12},{"주소":"서울특별시 동작구 상도동 375-5","apartment_name":"성우2차아파트","lng":126.9353504097,"lat":37.4944780304,"gcn_class":12},{"주소":"서울특별시 동작구 상도동 323-4","apartment_name":"상진아파트","lng":126.9296866115,"lat":37.4988303505,"gcn_class":12},{"주소":"서울특별시 동작구 상도동 301-226","apartment_name":"청운아파트","lng":126.9335206729,"lat":37.4936772812,"gcn_class":12},{"주소":"서울특별시 동작구 상도동 181-2","apartment_name":"정호백경","lng":126.9398637931,"lat":37.503540211,"gcn_class":12},{"주소":"서울특별시 동작구 상도동 212-99","apartment_name":"장승","lng":126.9454749662,"lat":37.4987639092,"gcn_class":12},{"주소":"서울특별시 동작구 상도동 473","apartment_name":"숭실골드","lng":126.9523764631,"lat":37.4963055236,"gcn_class":12},{"주소":"서울특별시 동작구 상도동 420","apartment_name":"대우유로카운티","lng":126.9492353551,"lat":37.5054524889,"gcn_class":12},{"주소":"서울특별시 동작구 상도동 900","apartment_name":"상도파크자이","lng":126.9383231778,"lat":37.5057835506,"gcn_class":12},{"주소":"서울특별시 동작구 상도동 301-4","apartment_name":"초원","lng":126.9333220897,"lat":37.4934393035,"gcn_class":12},{"주소":"서울특별시 동작구 상도동 126-17","apartment_name":"세레노","lng":126.9557038892,"lat":37.4925977331,"gcn_class":12},{"주소":"서울특별시 동작구 상도동 210-250","apartment_name":"남현그린","lng":126.9413424514,"lat":37.4991328738,"gcn_class":12},{"주소":"서울특별시 동작구 상도동 56-45","apartment_name":"수정빌라트(56-45)","lng":126.9525036678,"lat":37.5007926762,"gcn_class":12},{"주소":"서울특별시 동작구 대방동 506","apartment_name":"현대홈타운2","lng":126.9313075288,"lat":37.5107716957,"gcn_class":12},{"주소":"서울특별시 동작구 대방동 502","apartment_name":"대방동현대","lng":126.9308216777,"lat":37.5126764953,"gcn_class":12},{"주소":"서울특별시 동작구 대방동 375-16","apartment_name":"다울","lng":126.9274655445,"lat":37.5029448021,"gcn_class":12},{"주소":"서울특별시 동작구 대방동 509","apartment_name":"보라매코오롱하늘채","lng":126.9231789998,"lat":37.4984721124,"gcn_class":12},{"주소":"서울특별시 동작구 대방동 515","apartment_name":"아데나339","lng":126.9289182444,"lat":37.5127184332,"gcn_class":12},{"주소":"서울특별시 동작구 대방동 504","apartment_name":"한국개나리","lng":126.928536487,"lat":37.514157917,"gcn_class":12},{"주소":"서울특별시 동작구 대방동 41","apartment_name":"신한토탈","lng":126.933161416,"lat":37.5118209876,"gcn_class":12},{"주소":"서울특별시 동작구 대방동 393-71","apartment_name":"신대방타워","lng":126.9276883637,"lat":37.5005746631,"gcn_class":12},{"주소":"서울특별시 동작구 대방동 510","apartment_name":"신일해피트리","lng":126.9277180673,"lat":37.5141048003,"gcn_class":12},{"주소":"서울특별시 동작구 대방동 393-26","apartment_name":"다운페라","lng":126.9286017965,"lat":37.5014048649,"gcn_class":12},{"주소":"서울특별시 동작구 대방동 377-1","apartment_name":"대방홈타운","lng":126.9243754894,"lat":37.5039407278,"gcn_class":12},{"주소":"서울특별시 동작구 대방동 507","apartment_name":"대방2차e-편한세상","lng":126.9309543543,"lat":37.5120625387,"gcn_class":12},{"주소":"서울특별시 동작구 대방동 383-17","apartment_name":"신호리치빌","lng":126.9230598215,"lat":37.506061385,"gcn_class":12},{"주소":"서울특별시 관악구 봉천동 1717","apartment_name":"관악푸르지오","lng":126.960864947,"lat":37.4873112715,"gcn_class":7},{"주소":"서울특별시 관악구 봉천동 893-1","apartment_name":"프라비다M","lng":126.947672564,"lat":37.4824444142,"gcn_class":7},{"주소":"서울특별시 관악구 봉천동 867-12","apartment_name":"프라비다2","lng":126.9504481672,"lat":37.4796806848,"gcn_class":7},{"주소":"서울특별시 관악구 봉천동 1718","apartment_name":"벽산블루밍","lng":126.9447670042,"lat":37.4892878706,"gcn_class":7},{"주소":"서울특별시 관악구 봉천동 1707","apartment_name":"은천1","lng":126.9648539554,"lat":37.4713903408,"gcn_class":7},{"주소":"서울특별시 관악구 봉천동 1707-1","apartment_name":"은천2단지아파트","lng":126.964561833,"lat":37.4699751263,"gcn_class":7},{"주소":"서울특별시 관악구 봉천동 1706","apartment_name":"봉천우성","lng":126.9595275642,"lat":37.4849781108,"gcn_class":7},{"주소":"서울특별시 관악구 봉천동 1712","apartment_name":"관악드림(동아)","lng":126.9506198227,"lat":37.4897679058,"gcn_class":7},{"주소":"서울특별시 관악구 봉천동 729-24","apartment_name":"캐릭터그린빌","lng":126.9254277051,"lat":37.4917978147,"gcn_class":7},{"주소":"서울특별시 관악구 봉천동 856-1","apartment_name":"대우디오슈페리움2단지","lng":126.953141657,"lat":37.4802678,"gcn_class":7},{"주소":"서울특별시 관악구 봉천동 1728","apartment_name":"관악파크푸르지오","lng":126.961294016,"lat":37.4827737546,"gcn_class":7},{"주소":"서울특별시 관악구 봉천동 1721","apartment_name":"브라운스톤관악","lng":126.957233855,"lat":37.487812415,"gcn_class":7},{"주소":"서울특별시 관악구 봉천동 893-12","apartment_name":"마에스트로캠퍼스타운","lng":126.9473750189,"lat":37.4822302925,"gcn_class":7},{"주소":"서울특별시 관악구 봉천동 859-17","apartment_name":"관악위버폴리스","lng":126.9532295611,"lat":37.4827164166,"gcn_class":7},{"주소":"서울특별시 관악구 봉천동 463-1","apartment_name":"더블유에스타워","lng":126.9474864197,"lat":37.4867051102,"gcn_class":7},{"주소":"서울특별시 관악구 봉천동 1593-14","apartment_name":"로얄클래스","lng":126.9524570139,"lat":37.4743036544,"gcn_class":7},{"주소":"서울특별시 관악구 봉천동 1703","apartment_name":"봉천동아","lng":126.9555545973,"lat":37.4895920965,"gcn_class":7},{"주소":"서울특별시 관악구 봉천동 1716","apartment_name":"벽산타운II","lng":126.9460406063,"lat":37.4925114528,"gcn_class":7},{"주소":"서울특별시 관악구 봉천동 645-87","apartment_name":"복권","lng":126.9382479495,"lat":37.4882264095,"gcn_class":7},{"주소":"서울특별시 관악구 봉천동 1713","apartment_name":"낙성대현대홈타운","lng":126.9634892693,"lat":37.480662849,"gcn_class":7},{"주소":"서울특별시 관악구 봉천동 1700","apartment_name":"갑을","lng":126.9521196077,"lat":37.4751103726,"gcn_class":7},{"주소":"서울특별시 관악구 봉천동 1720","apartment_name":"벽산블루밍3차","lng":126.9444338524,"lat":37.4884224767,"gcn_class":7},{"주소":"서울특별시 관악구 봉천동 1672-10","apartment_name":"탑","lng":126.9580770319,"lat":37.4805195041,"gcn_class":7},{"주소":"서울특별시 관악구 봉천동 1619-27","apartment_name":"새진(1619-27)","lng":126.9564836779,"lat":37.4775879448,"gcn_class":7},{"주소":"서울특별시 관악구 봉천동 1724","apartment_name":"관악월드메르디앙","lng":126.9589747116,"lat":37.4834486384,"gcn_class":7},{"주소":"서울특별시 관악구 봉천동 464-41","apartment_name":"은선파인빌","lng":126.947899172,"lat":37.4863097504,"gcn_class":7},{"주소":"서울특별시 관악구 봉천동 1698-1","apartment_name":"보라매삼성","lng":126.928177343,"lat":37.4941052854,"gcn_class":7},{"주소":"서울특별시 관악구 봉천동 1531-39","apartment_name":"무학","lng":126.9386711138,"lat":37.4812498522,"gcn_class":7},{"주소":"서울특별시 관악구 봉천동 1522-31","apartment_name":"금강아미움(106동)","lng":126.9407552541,"lat":37.4815773511,"gcn_class":7},{"주소":"서울특별시 관악구 봉천동 1644-31","apartment_name":"휴먼아파트B","lng":126.9685543686,"lat":37.474210194,"gcn_class":7},{"주소":"서울특별시 관악구 봉천동 856-5","apartment_name":"대우디오슈페리움1단지","lng":126.9528506919,"lat":37.4796467989,"gcn_class":7},{"주소":"서울특별시 관악구 봉천동 1522-29","apartment_name":"금강아미움(102동)","lng":126.9405824393,"lat":37.4819340638,"gcn_class":7},{"주소":"서울특별시 관악구 봉천동 1690-164","apartment_name":"낙성대늘푸른","lng":126.9671831849,"lat":37.4762586275,"gcn_class":7},{"주소":"서울특별시 관악구 봉천동 148-129","apartment_name":"관악미래가","lng":126.963731308,"lat":37.4793085266,"gcn_class":7},{"주소":"서울특별시 관악구 봉천동 869-3","apartment_name":"프라비다1","lng":126.9513110323,"lat":37.4809021811,"gcn_class":7},{"주소":"서울특별시 관악구 봉천동 100-20","apartment_name":"더갤러리테라스","lng":126.9592374382,"lat":37.4820573917,"gcn_class":7},{"주소":"서울특별시 관악구 봉천동 1522-33","apartment_name":"금강아미움(104동)","lng":126.9401410351,"lat":37.4818032848,"gcn_class":7},{"주소":"서울특별시 관악구 봉천동 863-9","apartment_name":"코스모블루","lng":126.9517902564,"lat":37.4799096458,"gcn_class":7},{"주소":"서울특별시 관악구 봉천동 685-100","apartment_name":"보람(685-100)","lng":126.9339290299,"lat":37.4928787676,"gcn_class":7},{"주소":"서울특별시 관악구 봉천동 1701","apartment_name":"건영6","lng":126.9518895381,"lat":37.4770636681,"gcn_class":7},{"주소":"서울특별시 관악구 봉천동 296","apartment_name":"낙성대현대(296)","lng":126.9594651113,"lat":37.4750056303,"gcn_class":7},{"주소":"서울특별시 관악구 봉천동 1726","apartment_name":"관악청광플러스원","lng":126.9443686886,"lat":37.4874013338,"gcn_class":7},{"주소":"서울특별시 관악구 봉천동 1719","apartment_name":"관악동부센트레빌","lng":126.9509911367,"lat":37.4872048734,"gcn_class":7},{"주소":"서울특별시 관악구 봉천동 875-1","apartment_name":"관악캠퍼스타워","lng":126.9503329203,"lat":37.4812783056,"gcn_class":7},{"주소":"서울특별시 관악구 봉천동 1021","apartment_name":"일두(1021)","lng":126.9547269704,"lat":37.4889071966,"gcn_class":7},{"주소":"서울특별시 관악구 봉천동 1729","apartment_name":"서희스타힐스","lng":126.9594847702,"lat":37.4886387118,"gcn_class":7},{"주소":"서울특별시 관악구 봉천동 905-10","apartment_name":"노블레스","lng":126.9419279982,"lat":37.4852892776,"gcn_class":7},{"주소":"서울특별시 관악구 봉천동 1715","apartment_name":"부미아띠랑스힐","lng":126.9544416359,"lat":37.4748398164,"gcn_class":7},{"주소":"서울특별시 관악구 봉천동 867-9","apartment_name":"서울대역해담채","lng":126.9507702071,"lat":37.4797800205,"gcn_class":7},{"주소":"서울특별시 관악구 봉천동 729-32","apartment_name":"해태보라매타워","lng":126.9250987141,"lat":37.4911677124,"gcn_class":7},{"주소":"서울특별시 관악구 봉천동 1608-23","apartment_name":"푸르빌3차","lng":126.9543682642,"lat":37.4761431888,"gcn_class":7},{"주소":"서울특별시 관악구 봉천동 1605-40","apartment_name":"신성새실마을103동","lng":126.953688367,"lat":37.4774135281,"gcn_class":7},{"주소":"서울특별시 관악구 봉천동 1560-62","apartment_name":"서울대입구아이원(1560-62)","lng":126.9460553881,"lat":37.478245075,"gcn_class":7},{"주소":"서울특별시 관악구 봉천동 1630-7","apartment_name":"동원낙성대","lng":126.9620919336,"lat":37.476452713,"gcn_class":7},{"주소":"서울특별시 관악구 봉천동 1598-49","apartment_name":"뉴그린아파트","lng":126.95317482,"lat":37.4785786011,"gcn_class":7},{"주소":"서울특별시 관악구 봉천동 457-146","apartment_name":"신부","lng":126.9503672003,"lat":37.4851755426,"gcn_class":7},{"주소":"서울특별시 관악구 봉천동 1560-61","apartment_name":"서울대입구아이원(1560-61)","lng":126.9450282099,"lat":37.4783228993,"gcn_class":7},{"주소":"서울특별시 관악구 봉천동 934-4","apartment_name":"도영힐","lng":126.9411401498,"lat":37.4848500066,"gcn_class":7},{"주소":"서울특별시 관악구 봉천동 179-58","apartment_name":"낙성대현대아파트","lng":126.9663659562,"lat":37.4723908122,"gcn_class":7},{"주소":"서울특별시 관악구 봉천동 1722","apartment_name":"제창그로힐","lng":126.9687173821,"lat":37.4758512466,"gcn_class":7},{"주소":"서울특별시 관악구 봉천동 1723","apartment_name":"반석푸른숲","lng":126.965807061,"lat":37.4686370417,"gcn_class":7},{"주소":"서울특별시 관악구 봉천동 622-3","apartment_name":"은천누리에뜰","lng":126.9422335437,"lat":37.4864155975,"gcn_class":7},{"주소":"서울특별시 관악구 봉천동 1697","apartment_name":"선경","lng":126.9491057308,"lat":37.4798092288,"gcn_class":7},{"주소":"서울특별시 관악구 봉천동 1690-170","apartment_name":"로얄훼미리","lng":126.9674556604,"lat":37.4764828741,"gcn_class":7},{"주소":"서울특별시 관악구 봉천동 916-22","apartment_name":"늘푸른","lng":126.945421831,"lat":37.4800921232,"gcn_class":7},{"주소":"서울특별시 관악구 봉천동 870-13","apartment_name":"신원메트로빌","lng":126.9514458269,"lat":37.4817354896,"gcn_class":7},{"주소":"서울특별시 관악구 봉천동 24-14","apartment_name":"태승","lng":126.9591970804,"lat":37.4843343167,"gcn_class":7},{"주소":"서울특별시 관악구 봉천동 63-45","apartment_name":"경원시티","lng":126.9555752641,"lat":37.4821886099,"gcn_class":7},{"주소":"서울특별시 관악구 봉천동 1696","apartment_name":"보라매우성","lng":126.9255624407,"lat":37.4923064281,"gcn_class":7},{"주소":"서울특별시 관악구 봉천동 1531-34","apartment_name":"대경","lng":126.9384896577,"lat":37.4809650391,"gcn_class":7},{"주소":"서울특별시 관악구 봉천동 1629-2","apartment_name":"동아타운","lng":126.9612330329,"lat":37.4769457371,"gcn_class":7},{"주소":"서울특별시 관악구 봉천동 1653-10","apartment_name":"새진(1653-10)","lng":126.9701673668,"lat":37.4748038373,"gcn_class":7},{"주소":"서울특별시 관악구 봉천동 148-139","apartment_name":"경원로얄시티","lng":126.9637385483,"lat":37.479064986,"gcn_class":7},{"주소":"서울특별시 관악구 봉천동 30-8","apartment_name":"관악태우미소가","lng":126.9559617861,"lat":37.4839896907,"gcn_class":7},{"주소":"서울특별시 관악구 봉천동 41-265","apartment_name":"에메랄드103동","lng":126.9534380555,"lat":37.4856232423,"gcn_class":7},{"주소":"서울특별시 관악구 봉천동 180-380","apartment_name":"새진7차","lng":126.9661506345,"lat":37.4695559915,"gcn_class":7},{"주소":"서울특별시 관악구 봉천동 1592-17","apartment_name":"닷컴오뜨빌","lng":126.9523579877,"lat":37.4755403407,"gcn_class":7},{"주소":"서울특별시 관악구 봉천동 1617-44","apartment_name":"관악교수","lng":126.9555840775,"lat":37.4755122245,"gcn_class":7},{"주소":"서울특별시 관악구 봉천동 1705","apartment_name":"신봉","lng":126.94966137,"lat":37.4849346748,"gcn_class":7},{"주소":"서울특별시 관악구 봉천동 180-374","apartment_name":"새진4차","lng":126.9667082124,"lat":37.469197007,"gcn_class":7},{"주소":"서울특별시 관악구 봉천동 1591-2","apartment_name":"서울대입구삼성","lng":126.9520783568,"lat":37.4761521033,"gcn_class":7},{"주소":"서울특별시 관악구 봉천동 1615-17","apartment_name":"반석블레스빌","lng":126.9547439619,"lat":37.4759219553,"gcn_class":7},{"주소":"서울특별시 관악구 봉천동 1616-11","apartment_name":"코스코수","lng":126.9546217509,"lat":37.4751745208,"gcn_class":7},{"주소":"서울특별시 관악구 봉천동 180-376","apartment_name":"새진5차","lng":126.9665951175,"lat":37.4693132054,"gcn_class":7},{"주소":"서울특별시 관악구 봉천동 466-1","apartment_name":"신부파스카빌","lng":126.9495991247,"lat":37.4873780021,"gcn_class":7},{"주소":"서울특별시 관악구 봉천동 917-1","apartment_name":"장미(917-1)","lng":126.9457204128,"lat":37.4797915039,"gcn_class":7},{"주소":"서울특별시 관악구 봉천동 1608-28","apartment_name":"위너스이즈","lng":126.9540181819,"lat":37.4758854545,"gcn_class":7},{"주소":"서울특별시 관악구 봉천동 41-346","apartment_name":"일동행복세상","lng":126.9525288919,"lat":37.485955713,"gcn_class":7},{"주소":"서울특별시 관악구 봉천동 1595-14","apartment_name":"하이캐슬101동","lng":126.9534882576,"lat":37.475043794,"gcn_class":7},{"주소":"서울특별시 관악구 봉천동 1522-28","apartment_name":"금강아미움(101동)","lng":126.940288615,"lat":37.4820450101,"gcn_class":7},{"주소":"서울특별시 관악구 봉천동 1594-4","apartment_name":"은선","lng":126.9534466245,"lat":37.4743630646,"gcn_class":7},{"주소":"서울특별시 관악구 봉천동 1690-163","apartment_name":"삼성아트빌(1690-163)","lng":126.9669663184,"lat":37.4763248814,"gcn_class":7},{"주소":"서울특별시 관악구 봉천동 1605-1","apartment_name":"신성새실마을101동","lng":126.9536577672,"lat":37.4779008721,"gcn_class":7},{"주소":"서울특별시 관악구 봉천동 1618-27","apartment_name":"새진3차","lng":126.9561321665,"lat":37.4770433348,"gcn_class":7},{"주소":"서울특별시 관악구 봉천동 41-258","apartment_name":"카후나빌","lng":126.953013857,"lat":37.4859324806,"gcn_class":7},{"주소":"서울특별시 관악구 봉천동 1690-171","apartment_name":"늘푸른5차","lng":126.9675082472,"lat":37.4767057083,"gcn_class":7},{"주소":"서울특별시 관악구 봉천동 1522-30","apartment_name":"금강아미움(103동)","lng":126.9408801039,"lat":37.481826903,"gcn_class":7},{"주소":"서울특별시 관악구 봉천동 180-381","apartment_name":"새진6차","lng":126.9662238237,"lat":37.469445098,"gcn_class":7},{"주소":"서울특별시 관악구 봉천동 41-274","apartment_name":"에메랄드104동","lng":126.9532453244,"lat":37.485543427,"gcn_class":7},{"주소":"서울특별시 관악구 봉천동 1511-29","apartment_name":"신양","lng":126.9343850943,"lat":37.4896272864,"gcn_class":7},{"주소":"서울특별시 관악구 봉천동 1644-26","apartment_name":"휴먼아파트A","lng":126.968822978,"lat":37.4744802979,"gcn_class":7},{"주소":"서울특별시 관악구 봉천동 957-6","apartment_name":"쁘띠그린힐","lng":126.9367664563,"lat":37.4861105998,"gcn_class":7},{"주소":"서울특별시 관악구 봉천동 1690-168","apartment_name":"늘푸른3차","lng":126.9671428054,"lat":37.4765607248,"gcn_class":7},{"주소":"서울특별시 관악구 봉천동 673-82","apartment_name":"봉천동","lng":126.9342375075,"lat":37.4903010678,"gcn_class":7},{"주소":"서울특별시 관악구 봉천동 179-2","apartment_name":"아이펠리스","lng":126.9661325048,"lat":37.4729079255,"gcn_class":7},{"주소":"서울특별시 강남구 논현동 105","apartment_name":"동현아파트1~6","lng":127.0365753874,"lat":37.5193540121,"gcn_class":2},{"주소":"서울특별시 강남구 논현동 58-2","apartment_name":"마일스디오빌","lng":127.0288856114,"lat":37.5138854297,"gcn_class":8},{"주소":"서울특별시 강남구 논현동 108","apartment_name":"논현웰스톤","lng":127.0380297511,"lat":37.5184527298,"gcn_class":8},{"주소":"서울특별시 강남구 논현동 205-2","apartment_name":"논현동한화꿈에그린","lng":127.0303953752,"lat":37.5068232478,"gcn_class":8},{"주소":"서울특별시 강남구 논현동 105-3","apartment_name":"논현한가람빌라트","lng":127.0375069732,"lat":37.5187805017,"gcn_class":8},{"주소":"서울특별시 강남구 논현동 196","apartment_name":"거평프리젠","lng":127.0276371536,"lat":37.5063698187,"gcn_class":8},{"주소":"서울특별시 강남구 논현동 261","apartment_name":"현대인텔렉스","lng":127.036310564,"lat":37.5116244731,"gcn_class":8},{"주소":"서울특별시 강남구 논현동 276-1","apartment_name":"아크로힐스논현","lng":127.038954823,"lat":37.5095251012,"gcn_class":3},{"주소":"서울특별시 강남구 논현동 229-13","apartment_name":"이움빌라","lng":127.034116563,"lat":37.509252512,"gcn_class":8},{"주소":"서울특별시 강남구 논현동 114-23","apartment_name":"로체샤르캐슬","lng":127.0368670676,"lat":37.5171763767,"gcn_class":8},{"주소":"서울특별시 강남구 논현동 221-7","apartment_name":"한양수자인어반게이트","lng":127.0335238814,"lat":37.5097162486,"gcn_class":0},{"주소":"서울특별시 강남구 논현동 274","apartment_name":"경남논현","lng":127.038198973,"lat":37.5106817873,"gcn_class":8},{"주소":"서울특별시 강남구 논현동 122-25","apartment_name":"세호시티라이프","lng":127.0242798677,"lat":37.5104104819,"gcn_class":8},{"주소":"서울특별시 강남구 논현동 22","apartment_name":"신동아(22)","lng":127.0226686272,"lat":37.51471571,"gcn_class":8},{"주소":"서울특별시 강남구 논현동 192-3","apartment_name":"논현동프라임","lng":127.0328324795,"lat":37.5081771664,"gcn_class":8},{"주소":"서울특별시 강남구 논현동 268-12","apartment_name":"그랑디오스","lng":127.0428263529,"lat":37.5112727007,"gcn_class":8},{"주소":"서울특별시 강남구 논현동 192-1","apartment_name":"리더스빌","lng":127.0325181857,"lat":37.5082151856,"gcn_class":8},{"주소":"서울특별시 강남구 논현동 194-23","apartment_name":"한화꿈에그린2차","lng":127.0307286947,"lat":37.5076852431,"gcn_class":8},{"주소":"서울특별시 강남구 논현동 103","apartment_name":"쌍용","lng":127.0381307987,"lat":37.5196304886,"gcn_class":8},{"주소":"서울특별시 강남구 논현동 62-3","apartment_name":"청학아파트에이동,비동,씨동","lng":127.0322155116,"lat":37.5202894417,"gcn_class":8},{"주소":"서울특별시 강남구 논현동 55","apartment_name":"스위트캐슬레지던스","lng":127.0238872994,"lat":37.5126034263,"gcn_class":8},{"주소":"서울특별시 강남구 논현동 215-14","apartment_name":"논현아트빌","lng":127.0322745871,"lat":37.5124719581,"gcn_class":8},{"주소":"서울특별시 강남구 논현동 195-1","apartment_name":"e-편한세상","lng":127.0287500127,"lat":37.5068623128,"gcn_class":8},{"주소":"서울특별시 강남구 논현동 80-13","apartment_name":"프라임","lng":127.0305870709,"lat":37.5162258993,"gcn_class":8},{"주소":"서울특별시 강남구 논현동 46-2","apartment_name":"힐스빌7","lng":127.0229026626,"lat":37.5132582009,"gcn_class":8},{"주소":"서울특별시 강남구 논현동 214-2","apartment_name":"논현베르빌","lng":127.0327226167,"lat":37.5127472718,"gcn_class":8},{"주소":"서울특별시 강남구 논현동 212-13","apartment_name":"논현동월드메르디앙","lng":127.0341411268,"lat":37.5135186704,"gcn_class":8},{"주소":"서울특별시 강남구 논현동 107-44","apartment_name":"우민","lng":127.0373539054,"lat":37.5178343166,"gcn_class":8},{"주소":"서울특별시 강남구 논현동 252-1","apartment_name":"두산위브1단지","lng":127.0387752587,"lat":37.5135472435,"gcn_class":8},{"주소":"서울특별시 강남구 논현동 216-1","apartment_name":"두영","lng":127.0323823654,"lat":37.5121776606,"gcn_class":8},{"주소":"서울특별시 강남구 논현동 105-4","apartment_name":"한진로즈힐","lng":127.0371474265,"lat":37.5207174115,"gcn_class":8},{"주소":"서울특별시 강남구 논현동 212-20","apartment_name":"더그레이스","lng":127.0341630701,"lat":37.5130223009,"gcn_class":8},{"주소":"서울특별시 강남구 논현동 46-3","apartment_name":"요진보네르","lng":127.0229567778,"lat":37.5130484366,"gcn_class":8},{"주소":"서울특별시 강남구 논현동 47-11","apartment_name":"벨러스빌","lng":127.0226386728,"lat":37.5129105543,"gcn_class":8},{"주소":"서울특별시 강남구 논현동 108-2","apartment_name":"제이빌","lng":127.0379380343,"lat":37.5180481187,"gcn_class":8},{"주소":"서울특별시 강남구 논현동 241-1","apartment_name":"논현파라곤","lng":127.0401391657,"lat":37.5165525364,"gcn_class":8},{"주소":"서울특별시 강남구 논현동 196-4","apartment_name":"논현프라임아파트","lng":127.0283181404,"lat":37.5067123097,"gcn_class":8},{"주소":"서울특별시 강남구 논현동 79-5","apartment_name":"삼성빌라트","lng":127.0313132457,"lat":37.5164543837,"gcn_class":8},{"주소":"서울특별시 강남구 논현동 44-9","apartment_name":"지고하임(102동)","lng":127.0236444707,"lat":37.513728559,"gcn_class":8},{"주소":"서울특별시 강남구 논현동 109-9","apartment_name":"라이헤스빌","lng":127.0386794153,"lat":37.5187311991,"gcn_class":8},{"주소":"서울특별시 강남구 논현동 53-1","apartment_name":"힐타워","lng":127.0231228675,"lat":37.5124618505,"gcn_class":8},{"주소":"서울특별시 강남구 논현동 79-7","apartment_name":"한양빌라트","lng":127.0313012743,"lat":37.5170406699,"gcn_class":8},{"주소":"서울특별시 강남구 논현동 43-3","apartment_name":"브라운스톤","lng":127.0241978942,"lat":37.5132996591,"gcn_class":8},{"주소":"서울특별시 강남구 논현동 252","apartment_name":"논현라폴리움","lng":127.0387731396,"lat":37.5140424359,"gcn_class":8},{"주소":"서울특별시 강남구 압구정동 433","apartment_name":"신현대11차","lng":127.0244198236,"lat":37.5275560034,"gcn_class":2},{"주소":"서울특별시 강남구 압구정동 369-1","apartment_name":"현대1차(12,13,21,22,31,32,33동)","lng":127.0279255366,"lat":37.5330267381,"gcn_class":2},{"주소":"서울특별시 강남구 압구정동 462","apartment_name":"현대4차저층(51~56동)","lng":127.0306545341,"lat":37.5323773405,"gcn_class":8},{"주소":"서울특별시 강남구 압구정동 493","apartment_name":"한양2","lng":127.0405006129,"lat":37.5298218376,"gcn_class":2},{"주소":"서울특별시 강남구 압구정동 456","apartment_name":"현대6차(78~81,83,84,86,87동)","lng":127.0289045833,"lat":37.5299339057,"gcn_class":2},{"주소":"서울특별시 강남구 압구정동 426","apartment_name":"신현대9차","lng":127.0244793474,"lat":37.5262225982,"gcn_class":2},{"주소":"서울특별시 강남구 압구정동 490","apartment_name":"한양1차(영동한양)","lng":127.0388012471,"lat":37.530315346,"gcn_class":2},{"주소":"서울특별시 강남구 압구정동 528","apartment_name":"한양7","lng":127.0440631526,"lat":37.5291266107,"gcn_class":2},{"주소":"서울특별시 강남구 압구정동 443","apartment_name":"현대3차(61~64동)","lng":127.0269591423,"lat":37.5312605498,"gcn_class":2},{"주소":"서울특별시 강남구 압구정동 414","apartment_name":"미성1차","lng":127.0200946667,"lat":37.5253062054,"gcn_class":2},{"주소":"서울특별시 강남구 압구정동 486","apartment_name":"한양4","lng":127.0368652268,"lat":37.5309077439,"gcn_class":2},{"주소":"서울특별시 강남구 압구정동 434","apartment_name":"신현대12차","lng":127.0241090416,"lat":37.528929194,"gcn_class":2},{"주소":"서울특별시 강남구 압구정동 447","apartment_name":"현대14차(203,204,205,206동)","lng":127.0261367555,"lat":37.5306250782,"gcn_class":2},{"주소":"서울특별시 강남구 압구정동 489","apartment_name":"한양3","lng":127.0381666458,"lat":37.5291561441,"gcn_class":2},{"주소":"서울특별시 강남구 압구정동 448","apartment_name":"현대13차(208~211동)","lng":127.0273366444,"lat":37.5302335017,"gcn_class":2},{"주소":"서울특별시 강남구 압구정동 455","apartment_name":"현대5차(71,72동)","lng":127.0285630162,"lat":37.5319760183,"gcn_class":2},{"주소":"서울특별시 강남구 압구정동 513","apartment_name":"한양5","lng":127.0420749507,"lat":37.5289385759,"gcn_class":2},{"주소":"서울특별시 강남구 압구정동 436","apartment_name":"현대10차(201,202동)","lng":127.025073548,"lat":37.5310921176,"gcn_class":2},{"주소":"서울특별시 강남구 압구정동 510","apartment_name":"한양8(81동한개동)","lng":127.0417605613,"lat":37.5299675412,"gcn_class":2},{"주소":"서울특별시 강동구 명일동 15","apartment_name":"삼익그린2차","lng":127.1484589888,"lat":37.5532947928,"gcn_class":6},{"주소":"서울특별시 강동구 명일동 357","apartment_name":"에스엠해그린","lng":127.1456743891,"lat":37.5453020856,"gcn_class":6},{"주소":"서울특별시 강동구 명일동 332","apartment_name":"명일지에스아파트","lng":127.1456664552,"lat":37.5490172712,"gcn_class":6},{"주소":"서울특별시 강동구 명일동 257","apartment_name":"고덕주공9","lng":127.1516583658,"lat":37.5479073564,"gcn_class":6},{"주소":"서울특별시 강동구 명일동 270","apartment_name":"삼익가든","lng":127.1477088709,"lat":37.5472024666,"gcn_class":6},{"주소":"서울특별시 강동구 명일동 56","apartment_name":"현대(고덕)","lng":127.1535261091,"lat":37.5505038708,"gcn_class":6},{"주소":"서울특별시 강동구 명일동 344-16","apartment_name":"한강훼미리","lng":127.1446786542,"lat":37.5466771521,"gcn_class":6},{"주소":"서울특별시 강동구 명일동 251-1","apartment_name":"현대(명일)","lng":127.1488195266,"lat":37.548502834,"gcn_class":6},{"주소":"서울특별시 강동구 명일동 352-8","apartment_name":"태천해오름102동A","lng":127.1441154403,"lat":37.5451990322,"gcn_class":6},{"주소":"서울특별시 강동구 명일동 42","apartment_name":"명일우성","lng":127.1519188906,"lat":37.5511541272,"gcn_class":6},{"주소":"서울특별시 강동구 명일동 351-5","apartment_name":"다성씨티(1차)","lng":127.1449078872,"lat":37.5452005852,"gcn_class":6},{"주소":"서울특별시 강동구 명일동 326-9","apartment_name":"중앙","lng":127.1452171001,"lat":37.5499011629,"gcn_class":6},{"주소":"서울특별시 강동구 명일동 41","apartment_name":"고덕삼환아파트","lng":127.1518405966,"lat":37.5494891844,"gcn_class":6},{"주소":"서울특별시 강동구 명일동 354","apartment_name":"형인허브빌","lng":127.1444323554,"lat":37.5470552422,"gcn_class":6},{"주소":"서울특별시 강동구 명일동 48-12","apartment_name":"동양타워","lng":127.1540731984,"lat":37.5520654878,"gcn_class":6},{"주소":"서울특별시 강동구 명일동 335-7","apartment_name":"해밀","lng":127.1440282164,"lat":37.5480917935,"gcn_class":6},{"주소":"서울특별시 강동구 명일동 312-256","apartment_name":"삼보힐아파트","lng":127.1414918403,"lat":37.5514056665,"gcn_class":6},{"주소":"서울특별시 강동구 명일동 47-12","apartment_name":"명일진로","lng":127.1547780667,"lat":37.5532422594,"gcn_class":6},{"주소":"서울특별시 강동구 명일동 346-12","apartment_name":"다성이즈빌(346-12)","lng":127.1441902546,"lat":37.5459716371,"gcn_class":6},{"주소":"서울특별시 강동구 명일동 351-11","apartment_name":"태천해오름103동","lng":127.1445155113,"lat":37.5450533924,"gcn_class":6},{"주소":"서울특별시 강동구 명일동 355","apartment_name":"태천해오름101동","lng":127.1442698439,"lat":37.5454631966,"gcn_class":6},{"주소":"서울특별시 강동구 명일동 312-165","apartment_name":"우성103동","lng":127.141984407,"lat":37.5526320536,"gcn_class":6},{"주소":"서울특별시 강동구 명일동 352-5","apartment_name":"다성씨티(2)","lng":127.1446311214,"lat":37.5457371087,"gcn_class":6},{"주소":"서울특별시 강동구 명일동 346-10","apartment_name":"다성이즈빌(346-10)","lng":127.1439202296,"lat":37.5459571902,"gcn_class":6},{"주소":"서울특별시 강동구 명일동 358","apartment_name":"명일동다성이즈빌아파트","lng":127.1408102095,"lat":37.5511517694,"gcn_class":6},{"주소":"서울특별시 강동구 명일동 352-18","apartment_name":"태천해오름102동B","lng":127.144004066,"lat":37.5450085168,"gcn_class":6},{"주소":"서울특별시 강동구 명일동 348-4","apartment_name":"동은그랜드","lng":127.1454230928,"lat":37.5456074734,"gcn_class":6},{"주소":"서울특별시 강동구 길동 384-4","apartment_name":"에이치비골드빌(102동)","lng":127.1361853372,"lat":37.5382282242,"gcn_class":6},{"주소":"서울특별시 강동구 길동 53","apartment_name":"삼익파크맨션","lng":127.1485906848,"lat":37.5435295214,"gcn_class":6},{"주소":"서울특별시 강동구 길동 358-3","apartment_name":"다성팰리스","lng":127.142221081,"lat":37.5396670333,"gcn_class":6},{"주소":"서울특별시 강동구 길동 383-7","apartment_name":"다오아트빌","lng":127.1365570961,"lat":37.5393214281,"gcn_class":6},{"주소":"서울특별시 강동구 길동 445-1","apartment_name":"강동역에스케이허브","lng":127.1349223123,"lat":37.535548839,"gcn_class":6},{"주소":"서울특별시 강동구 길동 400","apartment_name":"길동우성","lng":127.1441792924,"lat":37.5371649256,"gcn_class":3},{"주소":"서울특별시 강동구 길동 474","apartment_name":"강동LG자이","lng":127.1491800768,"lat":37.5377198568,"gcn_class":6},{"주소":"서울특별시 강동구 길동 470","apartment_name":"현대1","lng":127.1473235729,"lat":37.5365712505,"gcn_class":6},{"주소":"서울특별시 강동구 길동 384-1","apartment_name":"한빛골드빌1차","lng":127.1363743935,"lat":37.538531823,"gcn_class":6},{"주소":"서울특별시 강동구 길동 457-1","apartment_name":"강동렘브란트","lng":127.1372673142,"lat":37.5350528391,"gcn_class":6},{"주소":"서울특별시 강동구 길동 414-4","apartment_name":"강동와이시티","lng":127.1374464548,"lat":37.5364903564,"gcn_class":6},{"주소":"서울특별시 강동구 길동 343-2","apartment_name":"현대웰하임(201동)","lng":127.1460051355,"lat":37.5411751028,"gcn_class":6},{"주소":"서울특별시 강동구 길동 385-4","apartment_name":"이스트드림힐","lng":127.1365205573,"lat":37.5378986118,"gcn_class":6},{"주소":"서울특별시 강동구 길동 416-3","apartment_name":"다성이즈텔","lng":127.135637275,"lat":37.5374288573,"gcn_class":6},{"주소":"서울특별시 강동구 길동 384-5","apartment_name":"에이치비골드빌(103동)","lng":127.1360539532,"lat":37.5380303359,"gcn_class":6},{"주소":"서울특별시 강동구 길동 343-1","apartment_name":"현대웰하임(101동)","lng":127.1454673421,"lat":37.5410671962,"gcn_class":6},{"주소":"서울특별시 강동구 길동 184","apartment_name":"삼익세라믹","lng":127.1486236497,"lat":37.5381896188,"gcn_class":6},{"주소":"서울특별시 강동구 길동 388-5","apartment_name":"메트로아파트","lng":127.1388982268,"lat":37.5374736307,"gcn_class":6},{"주소":"서울특별시 강동구 길동 456-2","apartment_name":"하이브","lng":127.1372970233,"lat":37.5355824124,"gcn_class":6},{"주소":"서울특별시 강동구 길동 347-27","apartment_name":"예다움","lng":127.1427224177,"lat":37.5415517692,"gcn_class":6},{"주소":"서울특별시 강동구 길동 242-6","apartment_name":"예전이룸1차","lng":127.1408347139,"lat":37.5351227909,"gcn_class":6},{"주소":"서울특별시 강동구 길동 415-13","apartment_name":"강동큐브(2차)","lng":127.1361530184,"lat":37.5366329513,"gcn_class":6},{"주소":"서울특별시 강동구 길동 388-7","apartment_name":"다성이즈빌(주상복합)","lng":127.1387399711,"lat":37.53798144,"gcn_class":6},{"주소":"서울특별시 강동구 길동 360-5","apartment_name":"태성","lng":127.144146101,"lat":37.5389664247,"gcn_class":6},{"주소":"서울특별시 강동구 길동 415-16","apartment_name":"청광플러스원큐브3차","lng":127.13645125,"lat":37.5363745607,"gcn_class":6},{"주소":"서울특별시 강동구 길동 351-2","apartment_name":"신세대빌라트","lng":127.1446623131,"lat":37.5405629048,"gcn_class":6},{"주소":"서울특별시 강동구 길동 100","apartment_name":"형인허브빌아파트","lng":127.147735301,"lat":37.5397227027,"gcn_class":6},{"주소":"서울특별시 강동구 길동 401-1","apartment_name":"하나플러스","lng":127.1441757884,"lat":37.5361677033,"gcn_class":6},{"주소":"서울특별시 강동구 길동 349-1","apartment_name":"다성이즈빌(349-1)","lng":127.1425482853,"lat":37.5406649459,"gcn_class":6},{"주소":"서울특별시 강동구 길동 457","apartment_name":"청광플러스원큐브2차","lng":127.1369444328,"lat":37.5351295286,"gcn_class":6},{"주소":"서울특별시 강동구 길동 388-4","apartment_name":"다성이즈빌아파트(388-4)","lng":127.1390328625,"lat":37.5378348633,"gcn_class":6},{"주소":"서울특별시 강동구 길동 384-2","apartment_name":"골드빌4차","lng":127.1360690758,"lat":37.5385069473,"gcn_class":6},{"주소":"서울특별시 강동구 길동 339-1","apartment_name":"동서울오네뜨","lng":127.1436427977,"lat":37.5426131112,"gcn_class":6},{"주소":"서울특별시 강동구 길동 356-8","apartment_name":"문화1","lng":127.1435208254,"lat":37.5397245663,"gcn_class":6},{"주소":"서울특별시 강동구 길동 97-6","apartment_name":"SM해그린12차","lng":127.1462169269,"lat":37.5400016498,"gcn_class":6},{"주소":"서울특별시 강동구 길동 475","apartment_name":"장인이즈빌","lng":127.1433407132,"lat":37.5400905908,"gcn_class":6},{"주소":"서울특별시 강동구 길동 379","apartment_name":"에스엠이로빌(379-0)","lng":127.1389818328,"lat":37.5386270822,"gcn_class":6},{"주소":"서울특별시 강동구 길동 365-1","apartment_name":"라인","lng":127.1414740576,"lat":37.5392420282,"gcn_class":6},{"주소":"서울특별시 강동구 길동 229-3","apartment_name":"탑건위너빌1","lng":127.1416540474,"lat":37.5347401473,"gcn_class":6},{"주소":"서울특별시 강동구 길동 247","apartment_name":"광남캐스빌(247-0)","lng":127.1399991432,"lat":37.5348132097,"gcn_class":6},{"주소":"서울특별시 강동구 길동 45","apartment_name":"우림루미아트","lng":127.1485127144,"lat":37.5422712846,"gcn_class":6},{"주소":"서울특별시 강동구 길동 415-11","apartment_name":"한솔브리즈","lng":127.1363830945,"lat":37.5372209486,"gcn_class":6},{"주소":"서울특별시 강동구 길동 107","apartment_name":"동삼빌라트","lng":127.147667716,"lat":37.5389591903,"gcn_class":6},{"주소":"서울특별시 강동구 길동 324-6","apartment_name":"다성이즈빌아파트","lng":127.1452701513,"lat":37.5435914972,"gcn_class":6},{"주소":"서울특별시 강동구 길동 414-10","apartment_name":"강동한신휴플러스","lng":127.1374784398,"lat":37.5361015377,"gcn_class":6},{"주소":"서울특별시 강동구 길동 332","apartment_name":"한전우성1","lng":127.144168916,"lat":37.5433525505,"gcn_class":6},{"주소":"서울특별시 강동구 길동 92","apartment_name":"신동아4","lng":127.1475528115,"lat":37.5416280034,"gcn_class":6},{"주소":"서울특별시 강동구 길동 146-1","apartment_name":"길동3차이룸","lng":127.1450718377,"lat":37.5363159918,"gcn_class":6},{"주소":"서울특별시 강동구 길동 472","apartment_name":"희훈리치파크1","lng":127.1394676303,"lat":37.5393849708,"gcn_class":6},{"주소":"서울특별시 강동구 길동 337-19","apartment_name":"예전이룸2차","lng":127.1428076888,"lat":37.5426549393,"gcn_class":6},{"주소":"서울특별시 강동구 길동 370-3","apartment_name":"에이스빌(370-3)","lng":127.1389643056,"lat":37.5405228956,"gcn_class":6},{"주소":"서울특별시 강동구 길동 348-4","apartment_name":"다성이즈빌","lng":127.1416005834,"lat":37.5404521889,"gcn_class":6},{"주소":"서울특별시 강동구 길동 99-1","apartment_name":"도림씨티빌1","lng":127.1469891423,"lat":37.5398696858,"gcn_class":6},{"주소":"서울특별시 강동구 길동 389-9","apartment_name":"광남캐스빌(389-9)","lng":127.139350468,"lat":37.5376540187,"gcn_class":6},{"주소":"서울특별시 강동구 길동 361-18","apartment_name":"청원파크빌2","lng":127.1452345161,"lat":37.5387542572,"gcn_class":6},{"주소":"서울특별시 강동구 길동 383-8","apartment_name":"노블레스(383-8)","lng":127.1366065844,"lat":37.5390344926,"gcn_class":6},{"주소":"서울특별시 강동구 길동 241-5","apartment_name":"삼유스위트빌","lng":127.140343033,"lat":37.5345989041,"gcn_class":6},{"주소":"서울특별시 강동구 길동 320-9","apartment_name":"웅주아크로파크","lng":127.1429992557,"lat":37.5443715606,"gcn_class":6},{"주소":"서울특별시 강동구 길동 352-4","apartment_name":"길동쎈스빌주상복합","lng":127.1459462671,"lat":37.5405214106,"gcn_class":6},{"주소":"서울특별시 강동구 길동 394-17","apartment_name":"율전에버그린아파트","lng":127.1407729603,"lat":37.5369402715,"gcn_class":6},{"주소":"서울특별시 강동구 길동 334-6","apartment_name":"시가오？에이동","lng":127.1428896699,"lat":37.5431594896,"gcn_class":6},{"주소":"서울특별시 강동구 길동 380-1","apartment_name":"SM빌","lng":127.1384026768,"lat":37.5390202377,"gcn_class":6},{"주소":"서울특별시 강동구 길동 334-3","apartment_name":"시가오？","lng":127.1430491434,"lat":37.5434165317,"gcn_class":6},{"주소":"서울특별시 강동구 길동 350-9","apartment_name":"태흥","lng":127.143684677,"lat":37.5404379585,"gcn_class":6},{"주소":"서울특별시 강동구 길동 353-40","apartment_name":"유덕휴먼빌","lng":127.1457869828,"lat":37.5398985664,"gcn_class":6},{"주소":"서울특별시 강동구 길동 103-5","apartment_name":"청원파크빌3","lng":127.1458175647,"lat":37.5386945232,"gcn_class":6},{"주소":"서울특별시 강동구 길동 380-18","apartment_name":"광남아파트101동","lng":127.1385427662,"lat":37.5385373179,"gcn_class":6},{"주소":"서울특별시 강동구 길동 414-6","apartment_name":"신암가온","lng":127.137965531,"lat":37.5369646681,"gcn_class":6},{"주소":"서울특별시 강동구 길동 347-20","apartment_name":"태솔","lng":127.1425767025,"lat":37.5419213548,"gcn_class":6},{"주소":"서울특별시 강동구 길동 385-3","apartment_name":"광남벨라스613V","lng":127.1367153857,"lat":37.5382028342,"gcn_class":6},{"주소":"서울특별시 강동구 둔촌동 630","apartment_name":"둔촌푸르지오","lng":127.1465181012,"lat":37.534145229,"gcn_class":6},{"주소":"서울특별시 강동구 둔촌동 30-4","apartment_name":"현대1차아파트","lng":127.146602504,"lat":37.5318329773,"gcn_class":6},{"주소":"서울특별시 강동구 둔촌동 555","apartment_name":"신동아파밀리에","lng":127.141702623,"lat":37.5291388391,"gcn_class":6},{"주소":"서울특별시 강동구 둔촌동 134-10","apartment_name":"신성둔촌미소지움2","lng":127.1436644031,"lat":37.5273336559,"gcn_class":6},{"주소":"서울특별시 강동구 둔촌동 611","apartment_name":"한솔솔파크","lng":127.1480535788,"lat":37.533879411,"gcn_class":6},{"주소":"서울특별시 강동구 둔촌동 46-20","apartment_name":"찬솔","lng":127.1444620354,"lat":37.5324684777,"gcn_class":6},{"주소":"서울특별시 강동구 둔촌동 603","apartment_name":"프라자","lng":127.148242029,"lat":37.5354014142,"gcn_class":6},{"주소":"서울특별시 강동구 둔촌동 89","apartment_name":"현대4","lng":127.1438394189,"lat":37.529573782,"gcn_class":6},{"주소":"서울특별시 강동구 둔촌동 546","apartment_name":"신성둔촌미소지움1","lng":127.1428282269,"lat":37.5278537369,"gcn_class":6},{"주소":"서울특별시 강동구 둔촌동 490-3","apartment_name":"다원애버니아","lng":127.1389939101,"lat":37.5304422023,"gcn_class":6},{"주소":"서울특별시 강동구 둔촌동 90","apartment_name":"청원파크빌","lng":127.1433620801,"lat":37.5317473959,"gcn_class":6},{"주소":"서울특별시 강동구 둔촌동 435-4","apartment_name":"광남캐스빌105동","lng":127.1392591506,"lat":37.5333904142,"gcn_class":6},{"주소":"서울특별시 강동구 둔촌동 544","apartment_name":"라이프101동(544)102동(544-1)","lng":127.1395738861,"lat":37.5295548434,"gcn_class":6},{"주소":"서울특별시 강동구 둔촌동 545","apartment_name":"둔촌하이츠","lng":127.1423998104,"lat":37.5295267824,"gcn_class":6},{"주소":"서울특별시 강동구 둔촌동 435-8","apartment_name":"광남캐스빌102동","lng":127.1392667448,"lat":37.5329718906,"gcn_class":6},{"주소":"서울특별시 강동구 둔촌동 435-2","apartment_name":"상상프리","lng":127.1393761122,"lat":37.5327689464,"gcn_class":6},{"주소":"서울특별시 강동구 둔촌동 621","apartment_name":"초원동아","lng":127.1458551187,"lat":37.5331699962,"gcn_class":6},{"주소":"서울특별시 강동구 둔촌동 62","apartment_name":"KNP이스트빌","lng":127.1417904791,"lat":37.5327587742,"gcn_class":6},{"주소":"서울특별시 강동구 둔촌동 425-3","apartment_name":"태천해오름","lng":127.1400509945,"lat":37.5329548352,"gcn_class":6},{"주소":"서울특별시 강동구 둔촌동 65-4","apartment_name":"둔촌늘푸른","lng":127.1426427444,"lat":37.5335254902,"gcn_class":6},{"주소":"서울특별시 강동구 둔촌동 511-2","apartment_name":"케이엔피로얄","lng":127.1389352025,"lat":37.5284955688,"gcn_class":6},{"주소":"서울특별시 강동구 둔촌동 67","apartment_name":"KNP주상복합1","lng":127.1413428195,"lat":37.5331351181,"gcn_class":6},{"주소":"서울특별시 강동구 둔촌동 488","apartment_name":"아인리베","lng":127.1384454306,"lat":37.5309938085,"gcn_class":6},{"주소":"서울특별시 강동구 둔촌동 631","apartment_name":"광남캐스빌(631)","lng":127.13853222,"lat":37.5292272946,"gcn_class":6},{"주소":"서울특별시 강동구 둔촌동 61-9","apartment_name":"노바","lng":127.1428639197,"lat":37.5326286374,"gcn_class":6},{"주소":"서울특별시 강동구 둔촌동 46-41","apartment_name":"미랜드퀸아파트101동","lng":127.1452497343,"lat":37.5325997784,"gcn_class":6},{"주소":"서울특별시 강동구 둔촌동 435-7","apartment_name":"광남캐스빌101동","lng":127.1393268943,"lat":37.5331325581,"gcn_class":6},{"주소":"서울특별시 강동구 둔촌동 622-12","apartment_name":"주풍그린빌라트","lng":127.1448181138,"lat":37.5330698197,"gcn_class":6},{"주소":"서울특별시 강동구 둔촌동 518-1","apartment_name":"그랜드1","lng":127.1382341186,"lat":37.5288625583,"gcn_class":6},{"주소":"서울특별시 강동구 둔촌동 104-3","apartment_name":"율전에버그린","lng":127.146060679,"lat":37.5268385899,"gcn_class":6},{"주소":"서울특별시 종로구 이화동 9-1","apartment_name":"송림아마레스아파트","lng":127.0071631047,"lat":37.5769676968,"gcn_class":20},{"주소":"서울특별시 종로구 명륜1가 23","apartment_name":"건양하늘터","lng":126.9978940634,"lat":37.5878485634,"gcn_class":20},{"주소":"서울특별시 종로구 명륜1가 5-89","apartment_name":"방산아파트","lng":126.9970921186,"lat":37.5905162049,"gcn_class":20},{"주소":"서울특별시 종로구 명륜1가 45-5","apartment_name":"아미레스아파트","lng":126.9988956419,"lat":37.5869572248,"gcn_class":20},{"주소":"서울특별시 종로구 행촌동 41-1","apartment_name":"대성아파트","lng":126.9626140559,"lat":37.5727229945,"gcn_class":20},{"주소":"서울특별시 중구 순화동 217","apartment_name":"덕수궁롯데캐슬","lng":126.9703712723,"lat":37.5635913527,"gcn_class":9},{"주소":"서울특별시 중구 순화동 151","apartment_name":"순화동더샵","lng":126.972065465,"lat":37.5601777994,"gcn_class":9},{"주소":"서울특별시 중구 순화동 215","apartment_name":"바비엥3","lng":126.9696549849,"lat":37.5631527459,"gcn_class":9},{"주소":"서울특별시 용산구 갈월동 6-48","apartment_name":"두리파크빌","lng":126.9736002887,"lat":37.5486770961,"gcn_class":25},{"주소":"서울특별시 용산구 청암동 181","apartment_name":"GS자이","lng":126.9472310358,"lat":37.5350074801,"gcn_class":25},{"주소":"서울특별시 용산구 청암동 64-1","apartment_name":"SK청암대(64-1)","lng":126.9479569833,"lat":37.5352963927,"gcn_class":25},{"주소":"서울특별시 용산구 문배동 24-6","apartment_name":"CJ나인파크","lng":126.9691707249,"lat":37.536084463,"gcn_class":25},{"주소":"서울특별시 용산구 문배동 11-29","apartment_name":"이안용산1차(103동)","lng":126.9703955899,"lat":37.537884705,"gcn_class":25},{"주소":"서울특별시 용산구 문배동 17-1","apartment_name":"지오베르크","lng":126.967361865,"lat":37.5374406133,"gcn_class":25},{"주소":"서울특별시 용산구 문배동 40-39","apartment_name":"이안용산3차","lng":126.9698017468,"lat":37.5388471833,"gcn_class":25},{"주소":"서울특별시 용산구 문배동 11-14","apartment_name":"이안용산1차(101동)","lng":126.9696582576,"lat":37.5374934837,"gcn_class":25},{"주소":"서울특별시 용산구 문배동 3-3","apartment_name":"이안용산프리미어","lng":126.9703184451,"lat":37.5386874768,"gcn_class":3},{"주소":"서울특별시 용산구 문배동 24-21","apartment_name":"아크로타워","lng":126.9685517716,"lat":37.5367545541,"gcn_class":25},{"주소":"서울특별시 용산구 문배동 7-6","apartment_name":"이안용산1차(102동)","lng":126.969827067,"lat":37.5380669236,"gcn_class":25},{"주소":"서울특별시 용산구 문배동 24-4","apartment_name":"용산큐브","lng":126.9683608486,"lat":37.5371341847,"gcn_class":25},{"주소":"서울특별시 용산구 문배동 24-8","apartment_name":"프라임펠리스","lng":126.9695383037,"lat":37.5367054379,"gcn_class":25},{"주소":"서울특별시 용산구 문배동 40-19","apartment_name":"삼라마이다스빌2","lng":126.9690480466,"lat":37.5383471132,"gcn_class":25},{"주소":"서울특별시 용산구 문배동 40-31","apartment_name":"리첸시아용산B","lng":126.9679831781,"lat":37.5379052491,"gcn_class":25},{"주소":"서울특별시 성동구 상왕십리동 811","apartment_name":"텐즈힐(2단지)","lng":127.0253741028,"lat":37.5693369136,"gcn_class":21},{"주소":"서울특별시 성동구 마장동 784","apartment_name":"세림","lng":127.0451832793,"lat":37.5652957945,"gcn_class":21},{"주소":"서울특별시 성동구 마장동 819","apartment_name":"마장동중앙하이츠","lng":127.0390992511,"lat":37.5654232046,"gcn_class":21},{"주소":"서울특별시 성동구 마장동 820","apartment_name":"왕십리금호어울림","lng":127.0406646929,"lat":37.5630082762,"gcn_class":21},{"주소":"서울특별시 성동구 마장동 512-2","apartment_name":"한건토파즈빌","lng":127.0386036626,"lat":37.5688366101,"gcn_class":21},{"주소":"서울특별시 성동구 마장동 778-1","apartment_name":"삼웅아파트1동","lng":127.0460577887,"lat":37.5666103701,"gcn_class":21},{"주소":"서울특별시 성동구 마장동 830","apartment_name":"신명스카이뷰","lng":127.0382085134,"lat":37.5655315257,"gcn_class":21},{"주소":"서울특별시 성동구 마장동 768-1","apartment_name":"아트리움","lng":127.0436936697,"lat":37.5681131386,"gcn_class":21},{"주소":"서울특별시 성동구 마장동 767-1","apartment_name":"장원","lng":127.0446298404,"lat":37.5691766839,"gcn_class":21},{"주소":"서울특별시 성동구 마장동 768-17","apartment_name":"행복드림","lng":127.0441058418,"lat":37.5677940328,"gcn_class":21},{"주소":"서울특별시 성동구 마장동 797-3","apartment_name":"마장동해맑은아파트","lng":127.0409360207,"lat":37.5642930032,"gcn_class":21},{"주소":"서울특별시 성동구 사근동 314","apartment_name":"벽산","lng":127.0495486392,"lat":37.5603831621,"gcn_class":21},{"주소":"서울특별시 성동구 사근동 199","apartment_name":"중앙하이츠","lng":127.0486532885,"lat":37.5618106232,"gcn_class":21},{"주소":"서울특별시 성동구 금호동4가 1550","apartment_name":"브라운스톤2차","lng":127.0153468441,"lat":37.5475783899,"gcn_class":21},{"주소":"서울특별시 성동구 금호동4가 1507","apartment_name":"브라운스톤금호","lng":127.0156958667,"lat":37.5466546399,"gcn_class":21},{"주소":"서울특별시 성동구 금호동4가 1250","apartment_name":"롯데","lng":127.0171777768,"lat":37.5469990657,"gcn_class":21},{"주소":"서울특별시 성동구 금호동4가 340","apartment_name":"서울숲푸르지오","lng":127.0223195321,"lat":37.5449828511,"gcn_class":21},{"주소":"서울특별시 성동구 금호동4가 180","apartment_name":"삼산금호","lng":127.0246974344,"lat":37.5474138137,"gcn_class":21},{"주소":"서울특별시 동대문구 전농동 690","apartment_name":"래미안크레시티","lng":127.0506070735,"lat":37.5762290632,"gcn_class":14},{"주소":"서울특별시 동대문구 전농동 155","apartment_name":"전농동삼성래미안","lng":127.0555936805,"lat":37.5819288503,"gcn_class":14},{"주소":"서울특별시 동대문구 전농동 687","apartment_name":"전농동신성미소지움","lng":127.0485270418,"lat":37.5783117738,"gcn_class":14},{"주소":"서울특별시 동대문구 전농동 688","apartment_name":"래미안아름숲","lng":127.0610760283,"lat":37.5809441482,"gcn_class":14},{"주소":"서울특별시 동대문구 전농동 32-4","apartment_name":"전농동하우스토리","lng":127.0585550153,"lat":37.5771729641,"gcn_class":14},{"주소":"서울특별시 동대문구 전농동 209-44","apartment_name":"퍼시픽하우스44차","lng":127.0530372793,"lat":37.5799542376,"gcn_class":14},{"주소":"서울특별시 중랑구 중화동 286-22","apartment_name":"청원다미소","lng":127.0799913692,"lat":37.602002812,"gcn_class":22},{"주소":"서울특별시 중랑구 중화동 274-77","apartment_name":"한영(104)","lng":127.0827568123,"lat":37.6064247659,"gcn_class":22},{"주소":"서울특별시 중랑구 중화동 450","apartment_name":"한신아파트상가동유치원동(103~109)","lng":127.0819072301,"lat":37.5971495732,"gcn_class":22},{"주소":"서울특별시 중랑구 중화동 207-12","apartment_name":"미영리치타운103","lng":127.0784372883,"lat":37.5951727228,"gcn_class":22},{"주소":"서울특별시 중랑구 중화동 454","apartment_name":"동양엔파트2차","lng":127.0745933813,"lat":37.594181331,"gcn_class":22},{"주소":"서울특별시 중랑구 중화동 207-14","apartment_name":"미영리치타운","lng":127.0778775249,"lat":37.5950156903,"gcn_class":22},{"주소":"서울특별시 중랑구 중화동 42","apartment_name":"중화동건영아파트","lng":127.0834239452,"lat":37.6056917916,"gcn_class":22},{"주소":"서울특별시 중랑구 중화동 438","apartment_name":"삼익아파트.상가동","lng":127.0777475125,"lat":37.6045724036,"gcn_class":22},{"주소":"서울특별시 중랑구 중화동 208-4","apartment_name":"범양프레체","lng":127.0758814774,"lat":37.5944855857,"gcn_class":22},{"주소":"서울특별시 중랑구 중화동 208-33","apartment_name":"동양엔파트","lng":127.075023361,"lat":37.5939935622,"gcn_class":22},{"주소":"서울특별시 중랑구 중화동 110-26","apartment_name":"로얄","lng":127.0824456416,"lat":37.6010240891,"gcn_class":22},{"주소":"서울특별시 중랑구 중화동 314-1","apartment_name":"태능에셈빌","lng":127.0774842715,"lat":37.5992798893,"gcn_class":22},{"주소":"서울특별시 중랑구 중화동 274-51","apartment_name":"한영(101)","lng":127.0821522739,"lat":37.6065213238,"gcn_class":22},{"주소":"서울특별시 중랑구 중화동 452","apartment_name":"동구햇살아파트101동","lng":127.0785188979,"lat":37.5998839504,"gcn_class":22},{"주소":"서울특별시 중랑구 중화동 19-3","apartment_name":"한솔e(B동)","lng":127.0836279025,"lat":37.6032595151,"gcn_class":22},{"주소":"서울특별시 중랑구 중화동 11","apartment_name":"현대휴앤미","lng":127.0846747304,"lat":37.6031458747,"gcn_class":22},{"주소":"서울특별시 중랑구 중화동 19-16","apartment_name":"한솔e(A동)","lng":127.0834022271,"lat":37.6031789461,"gcn_class":22},{"주소":"서울특별시 중랑구 중화동 274-76","apartment_name":"한영(103)","lng":127.0825653395,"lat":37.6064553534,"gcn_class":22},{"주소":"서울특별시 성북구 하월곡동 225","apartment_name":"래미안월곡","lng":127.0368731895,"lat":37.6104403957,"gcn_class":13},{"주소":"서울특별시 성북구 하월곡동 230","apartment_name":"동일하이빌뉴시티","lng":127.030996105,"lat":37.6050511945,"gcn_class":13},{"주소":"서울특별시 성북구 하월곡동 222","apartment_name":"월곡두산위브","lng":127.0383654076,"lat":37.6070330987,"gcn_class":13},{"주소":"서울특별시 성북구 하월곡동 88-64","apartment_name":"성북힐스테이트(101동)","lng":127.030381207,"lat":37.606544565,"gcn_class":13},{"주소":"서울특별시 성북구 하월곡동 88-510","apartment_name":"삼전솔하임3차","lng":127.0299599269,"lat":37.6068584874,"gcn_class":13},{"주소":"서울특별시 성북구 하월곡동 226","apartment_name":"월곡래미안루나밸리","lng":127.0421321307,"lat":37.5991654481,"gcn_class":13},{"주소":"서울특별시 성북구 하월곡동 90-1213","apartment_name":"창방트윈(A동)","lng":127.0339699198,"lat":37.6041064988,"gcn_class":13},{"주소":"서울특별시 성북구 하월곡동 218","apartment_name":"아남","lng":127.0346909068,"lat":37.6056911305,"gcn_class":13},{"주소":"서울특별시 성북구 하월곡동 90-2066","apartment_name":"창방트윈(B동)","lng":127.0341779494,"lat":37.6040952664,"gcn_class":13},{"주소":"서울특별시 성북구 하월곡동 227","apartment_name":"월곡갑을명가","lng":127.0421197278,"lat":37.6032775735,"gcn_class":13},{"주소":"서울특별시 성북구 하월곡동 70-4","apartment_name":"동신주택","lng":127.036205945,"lat":37.6058986239,"gcn_class":13},{"주소":"서울특별시 성북구 하월곡동 223","apartment_name":"수산동양빌","lng":127.038254199,"lat":37.6041667255,"gcn_class":13},{"주소":"서울특별시 성북구 하월곡동 224","apartment_name":"샹그레빌","lng":127.041393316,"lat":37.5964358867,"gcn_class":13},{"주소":"서울특별시 성북구 하월곡동 88-957","apartment_name":"성북힐스테이트(102동)","lng":127.02900453,"lat":37.6065416678,"gcn_class":13},{"주소":"서울특별시 성북구 하월곡동 229","apartment_name":"길음서희스타힐스","lng":127.027298893,"lat":37.605390069,"gcn_class":13},{"주소":"서울특별시 성북구 하월곡동 46-73","apartment_name":"코업스타클래스","lng":127.0404451667,"lat":37.6018209875,"gcn_class":13},