[
  {
    "apt_name": "광화문스페이스본(101동~105동)",
    "address": "서울특별시 종로구 사직동 9",
    "lng": 126.968880867164,
    "lat": 37.5744172415207,
    "cluster": 0
  },
  {
    "apt_name": "광화문스페이스본(106동)",
    "address": "서울특별시 종로구 사직동 9-1",
    "lng": 126.967762692573,
    "lat": 37.5735474815128,
    "cluster": 7
  },
  {
    "apt_name": "대성스카이렉스",
    "address": "서울특별시 종로구 견지동 110",
    "lng": 126.982441794649,
    "lat": 37.5724878538449,
    "cluster": 8
  },
  {
    "apt_name": "아르젠종로",
    "address": "서울특별시 종로구 연지동 163-3",
    "lng": 126.998735666018,
    "lat": 37.5732441865852,
    "cluster": 14
  },
  {
    "apt_name": "(1-102)",
    "address": "서울특별시 종로구 명륜3가 1-102",
    "lng": 126.995256218666,
    "lat": 37.589463696186,
    "cluster": 23
  },
  {
    "apt_name": "두산",
    "address": "서울특별시 종로구 창신동 232",
    "lng": 127.014287420294,
    "lat": 37.5742176646077,
    "cluster": 20
  },
  {
    "apt_name": "창신쌍용2",
    "address": "서울특별시 종로구 창신동 703",
    "lng": 127.011785265273,
    "lat": 37.5803232585025,
    "cluster": 1
  },
  {
    "apt_name": "창신쌍용1",
    "address": "서울특별시 종로구 창신동 702",
    "lng": 127.014014651795,
    "lat": 37.5805125839757,
    "cluster": 25
  },
  {
    "apt_name": "그린",
    "address": "서울특별시 종로구 창신동 23-326",
    "lng": 127.010686410236,
    "lat": 37.579327854921,
    "cluster": 1
  },
  {
    "apt_name": "삼흥",
    "address": "서울특별시 종로구 창신동 638-45",
    "lng": 127.009337881471,
    "lat": 37.5758837385698,
    "cluster": 12
  },
  {
    "apt_name": "창신이수",
    "address": "서울특별시 종로구 창신동 23-816",
    "lng": 127.014696141319,
    "lat": 37.5779927812929,
    "cluster": 20
  },
  {
    "apt_name": "동대문맨션",
    "address": "서울특별시 종로구 창신동 578-5",
    "lng": 127.011019923431,
    "lat": 37.5724007081113,
    "cluster": 25
  },
  {
    "apt_name": "동대문",
    "address": "서울특별시 종로구 창신동 328-17",
    "lng": 127.015188223655,
    "lat": 37.5722686100506,
    "cluster": 11
  },
  {
    "apt_name": "MID그린(3동)",
    "address": "서울특별시 종로구 창신동 601-2",
    "lng": 127.010018969316,
    "lat": 37.5779534469666,
    "cluster": 17
  },
  {
    "apt_name": "브라운스톤창신",
    "address": "서울특별시 종로구 창신동 23-76",
    "lng": 127.015029753574,
    "lat": 37.5773789820164,
    "cluster": 20
  },
  {
    "apt_name": "MID그린(7동)",
    "address": "서울특별시 종로구 창신동 601-8",
    "lng": 127.010038278869,
    "lat": 37.5775890832611,
    "cluster": 17
  },
  {
    "apt_name": "동문상가",
    "address": "서울특별시 종로구 창신동 436-41",
    "lng": 127.01138774944,
    "lat": 37.5704490275085,
    "cluster": 25
  },
  {
    "apt_name": "덕산",
    "address": "서울특별시 종로구 창신동 639-50",
    "lng": 127.009908122235,
    "lat": 37.5761162387658,
    "cluster": 17
  },
  {
    "apt_name": "MID그린(1동)",
    "address": "서울특별시 종로구 창신동 601",
    "lng": 127.01000066213,
    "lat": 37.5781958159533,
    "cluster": 17
  },
  {
    "apt_name": "창림",
    "address": "서울특별시 종로구 창신동 639-20",
    "lng": 127.009360310456,
    "lat": 37.5759998749854,
    "cluster": 12
  },
  {
    "apt_name": "성용",
    "address": "서울특별시 종로구 창신동 640-252",
    "lng": 127.009527061365,
    "lat": 37.5751171572704,
    "cluster": 15
  },
  {
    "apt_name": "MID그린(5동)",
    "address": "서울특별시 종로구 창신동 601-4",
    "lng": 127.009731850541,
    "lat": 37.5777630909085,
    "cluster": 17
  },
  {
    "apt_name": "MID그린(6동)",
    "address": "서울특별시 종로구 창신동 601-7",
    "lng": 127.009734207001,
    "lat": 37.5776026236401,
    "cluster": 17
  },
  {
    "apt_name": "유성",
    "address": "서울특별시 종로구 창신동 640-76",
    "lng": 127.009368613074,
    "lat": 37.5754051278289,
    "cluster": 15
  },
  {
    "apt_name": "일우",
    "address": "서울특별시 종로구 창신동 602",
    "lng": 127.009697153683,
    "lat": 37.577335301689,
    "cluster": 17
  },
  {
    "apt_name": "종로중흥S클래스",
    "address": "서울특별시 종로구 숭인동 202-3",
    "lng": 127.021698658509,
    "lat": 37.5735489879638,
    "cluster": 18
  },
  {
    "apt_name": "롯데캐슬천지인",
    "address": "서울특별시 종로구 숭인동 76",
    "lng": 127.016177810477,
    "lat": 37.5738517068991,
    "cluster": 20
  },
  {
    "apt_name": "종로센트레빌",
    "address": "서울특별시 종로구 숭인동 2-1",
    "lng": 127.015927681909,
    "lat": 37.5809772541379,
    "cluster": 8
  },
  {
    "apt_name": "하림빌라트",
    "address": "서울특별시 종로구 숭인동 473",
    "lng": 127.021327082749,
    "lat": 37.5785305640487,
    "cluster": 1
  },
  {
    "apt_name": "종로청계힐스테이트",
    "address": "서울특별시 종로구 숭인동 766",
    "lng": 127.02115124233,
    "lat": 37.5760304266335,
    "cluster": 20
  },
  {
    "apt_name": "숭인한양LEEPS",
    "address": "서울특별시 종로구 숭인동 1421-2",
    "lng": 127.022370638814,
    "lat": 37.5736181490425,
    "cluster": 18
  },
  {
    "apt_name": "삼전솔하임2차",
    "address": "서울특별시 종로구 숭인동 296-19",
    "lng": 127.016729343206,
    "lat": 37.5724071549574,
    "cluster": 18
  },
  {
    "apt_name": "숭인모범105동",
    "address": "서울특별시 종로구 숭인동 569-3",
    "lng": 127.01926241663,
    "lat": 37.5777548927365,
    "cluster": 6
  },
  {
    "apt_name": "종로동광모닝스카이",
    "address": "서울특별시 종로구 숭인동 1421-1",
    "lng": 127.02237715289,
    "lat": 37.5734457874911,
    "cluster": 18
  },
  {
    "apt_name": "탑스빌",
    "address": "서울특별시 종로구 숭인동 178-76",
    "lng": 127.020120915764,
    "lat": 37.5749941926987,
    "cluster": 16
  },
  {
    "apt_name": "숭인모범103동",
    "address": "서울특별시 종로구 숭인동 569-4",
    "lng": 127.019147554325,
    "lat": 37.5774803784781,
    "cluster": 1
  },
  {
    "apt_name": "삼전솔하임4차",
    "address": "서울특별시 종로구 숭인동 318-2",
    "lng": 127.016717108303,
    "lat": 37.571352181503,
    "cluster": 18
  },
  {
    "apt_name": "종로유케이201",
    "address": "서울특별시 종로구 숭인동 201-11",
    "lng": 127.021306953231,
    "lat": 37.5738385489524,
    "cluster": 18
  },
  {
    "apt_name": "오성",
    "address": "서울특별시 종로구 숭인동 888",
    "lng": 127.020042291396,
    "lat": 37.5772988598133,
    "cluster": 6
  },
  {
    "apt_name": "종로아인스빌",
    "address": "서울특별시 종로구 숭인동 1392-1",
    "lng": 127.022724714977,
    "lat": 37.5735651930175,
    "cluster": 18
  },
  {
    "apt_name": "숭인상가",
    "address": "서울특별시 종로구 숭인동 204-11",
    "lng": 127.020567845963,
    "lat": 37.5721312045136,
    "cluster": 25
  },
  {
    "apt_name": "동일상가",
    "address": "서울특별시 종로구 숭인동 232-29",
    "lng": 127.019822544753,
    "lat": 37.5721250250443,
    "cluster": 25
  },
  {
    "apt_name": "숭인모범104동",
    "address": "서울특별시 종로구 숭인동 569-2",
    "lng": 127.019098131326,
    "lat": 37.577669595276,
    "cluster": 1
  },
  {
    "apt_name": "동문(비동,씨동)(494-0)",
    "address": "서울특별시 종로구 숭인동 494",
    "lng": 127.021461786317,
    "lat": 37.5780863495289,
    "cluster": 15
  },
  {
    "apt_name": "익성씨티하임",
    "address": "서울특별시 종로구 숭인동 1392",
    "lng": 127.022719893302,
    "lat": 37.5737164709797,
    "cluster": 18
  },
  {
    "apt_name": "동문(482-0)",
    "address": "서울특별시 종로구 숭인동 482",
    "lng": 127.021636842455,
    "lat": 37.5782147993394,
    "cluster": 16
  },
  {
    "apt_name": "버넷하임1",
    "address": "서울특별시 종로구 숭인동 1421",
    "lng": 127.022367733858,
    "lat": 37.5737460908599,
    "cluster": 18
  },
  {
    "apt_name": "묵정",
    "address": "서울특별시 중구 묵정동 11-67",
    "lng": 127.000052968838,
    "lat": 37.560682598836,
    "cluster": 3
  },
  {
    "apt_name": "충무",
    "address": "서울특별시 중구 묵정동 11-2",
    "lng": 127.000688822151,
    "lat": 37.5607801747959,
    "cluster": 3
  },
  {
    "apt_name": "동자",
    "address": "서울특별시 용산구 동자동 19-8",
    "lng": 126.975061656468,
    "lat": 37.5511168671417,
    "cluster": 25
  },
  {
    "apt_name": "센트레빌아스테리움서울",
    "address": "서울특별시 용산구 동자동 45",
    "lng": 126.973210049015,
    "lat": 37.5516713863735,
    "cluster": 18
  },
  {
    "apt_name": "리버힐삼성",
    "address": "서울특별시 용산구 산천동 193",
    "lng": 126.95059340676,
    "lat": 37.535002087034,
    "cluster": 7
  },
  {
    "apt_name": "한강타운",
    "address": "서울특별시 용산구 산천동 204",
    "lng": 126.950212860284,
    "lat": 37.5357557043381,
    "cluster": 7
  },
  {
    "apt_name": "삼성래미안",
    "address": "서울특별시 용산구 도원동 23",
    "lng": 126.955316835387,
    "lat": 37.5382964045291,
    "cluster": 7
  },
  {
    "apt_name": "제일1",
    "address": "서울특별시 용산구 도원동 3-4",
    "lng": 126.95809560543,
    "lat": 37.5391365246956,
    "cluster": 25
  },
  {
    "apt_name": "용산파크타워(24-0)",
    "address": "서울특별시 용산구 용산동5가 24",
    "lng": 126.970684689419,
    "lat": 37.5242745211479,
    "cluster": 18
  },
  {
    "apt_name": "용산파크타워(24-1)",
    "address": "서울특별시 용산구 용산동5가 24-1",
    "lng": 126.97281622163,
    "lat": 37.5233187069721,
    "cluster": 18
  },
  {
    "apt_name": "이촌코오롱(A)",
    "address": "서울특별시 용산구 이촌동 412",
    "lng": 126.977937544932,
    "lat": 37.52007490322,
    "cluster": 11
  },
  {
    "apt_name": "북한강(성원)",
    "address": "서울특별시 용산구 이촌동 422",
    "lng": 126.95379465375,
    "lat": 37.527307930958,
    "cluster": 0
  },
  {
    "apt_name": "동아그린",
    "address": "서울특별시 용산구 이촌동 411",
    "lng": 126.958032726655,
    "lat": 37.5239356203446,
    "cluster": 13
  },
  {
    "apt_name": "강촌",
    "address": "서울특별시 용산구 이촌동 402",
    "lng": 126.977468237095,
    "lat": 37.5192338183281,
    "cluster": 11
  },
  {
    "apt_name": "현대한강",
    "address": "서울특별시 용산구 이촌동 400",
    "lng": 126.957576158124,
    "lat": 37.5233240369668,
    "cluster": 0
  },
  {
    "apt_name": "현대맨숀",
    "address": "서울특별시 용산구 이촌동 301-160",
    "lng": 126.980837866169,
    "lat": 37.5185919977774,
    "cluster": 3
  },
  {
    "apt_name": "한가람",
    "address": "서울특별시 용산구 이촌동 404",
    "lng": 126.970286646638,
    "lat": 37.5215850190543,
    "cluster": 11
  },
  {
    "apt_name": "왕궁",
    "address": "서울특별시 용산구 이촌동 300-11",
    "lng": 126.978241666315,
    "lat": 37.5171582318767,
    "cluster": 10
  },
  {
    "apt_name": "한강(대우)",
    "address": "서울특별시 용산구 이촌동 415",
    "lng": 126.969475303103,
    "lat": 37.5222169556785,
    "cluster": 11
  },
  {
    "apt_name": "LG한강자이",
    "address": "서울특별시 용산구 이촌동 430",
    "lng": 126.971107300788,
    "lat": 37.5199475597514,
    "cluster": 14
  },
  {
    "apt_name": "동부센트레빌",
    "address": "서울특별시 용산구 이촌동 418",
    "lng": 126.966523703852,
    "lat": 37.5211823453929,
    "cluster": 0
  },
  {
    "apt_name": "보람더하임",
    "address": "서울특별시 용산구 이촌동 435",
    "lng": 126.968769434434,
    "lat": 37.5202697940981,
    "cluster": 18
  },
  {
    "apt_name": "대림",
    "address": "서울특별시 용산구 이촌동 395",
    "lng": 126.954928463642,
    "lat": 37.5252183146702,
    "cluster": 13
  },
  {
    "apt_name": "이촌동삼성리버스위트",
    "address": "서울특별시 용산구 이촌동 426",
    "lng": 126.97681095732,
    "lat": 37.5172359865554,
    "cluster": 0
  },
  {
    "apt_name": "노들",
    "address": "서울특별시 용산구 이촌동 302-45",
    "lng": 126.96997373444,
    "lat": 37.5202140640102,
    "cluster": 25
  },
  {
    "apt_name": "우성",
    "address": "서울특별시 용산구 이촌동 399-1",
    "lng": 126.968363418261,
    "lat": 37.5216751604394,
    "cluster": 7
  },
  {
    "apt_name": "래미안첼리투스",
    "address": "서울특별시 용산구 이촌동 436",
    "lng": 126.979990652892,
    "lat": 37.5171784532934,
    "cluster": 14
  },
  {
    "apt_name": "두산위브트레지움",
    "address": "서울특별시 용산구 이촌동 301-155",
    "lng": 126.967125797058,
    "lat": 37.5218187125884,
    "cluster": 3
  },
  {
    "apt_name": "삼익",
    "address": "서울특별시 용산구 이촌동 300-301",
    "lng": 126.97603798549,
    "lat": 37.5184622780656,
    "cluster": 3
  },
  {
    "apt_name": "코스모스",
    "address": "서울특별시 용산구 이촌동 302-62",
    "lng": 126.968044082796,
    "lat": 37.5208586758001,
    "cluster": 25
  },
  {
    "apt_name": "점보",
    "address": "서울특별시 용산구 이촌동 300-10",
    "lng": 126.978703263669,
    "lat": 37.5180494083878,
    "cluster": 3
  },
  {
    "apt_name": "반도",
    "address": "서울특별시 용산구 이촌동 301-170",
    "lng": 126.982051655168,
    "lat": 37.5170232712561,
    "cluster": 10
  },
  {
    "apt_name": "타워맨션",
    "address": "서울특별시 용산구 이촌동 302-28",
    "lng": 126.964974036103,
    "lat": 37.5209729534352,
    "cluster": 27
  },
  {
    "apt_name": "한강맨숀",
    "address": "서울특별시 용산구 이촌동 300-23",
    "lng": 126.975026539164,
    "lat": 37.5193300950348,
    "cluster": 10
  },
  {
    "apt_name": "강변",
    "address": "서울특별시 용산구 이촌동 193-3",
    "lng": 126.959241249084,
    "lat": 37.5235193299625,
    "cluster": 27
  },
  {
    "apt_name": "빌라맨션",
    "address": "서울특별시 용산구 이촌동 302-86",
    "lng": 126.964391746835,
    "lat": 37.5213248912321,
    "cluster": 27
  },
  {
    "apt_name": "로얄맨숀",
    "address": "서울특별시 용산구 이촌동 301-10",
    "lng": 126.974536261291,
    "lat": 37.5200578206501,
    "cluster": 25
  },
  {
    "apt_name": "제일",
    "address": "서울특별시 용산구 이촌동 302-61",
    "lng": 126.96842079858,
    "lat": 37.5210735762113,
    "cluster": 3
  },
  {
    "apt_name": "강서",
    "address": "서울특별시 용산구 이촌동 193-5",
    "lng": 126.959587779953,
    "lat": 37.5232564464148,
    "cluster": 27
  },
  {
    "apt_name": "미주B",
    "address": "서울특별시 용산구 이촌동 302-48",
    "lng": 126.969441335164,
    "lat": 37.5200740016953,
    "cluster": 25
  },
  {
    "apt_name": "리버뷰",
    "address": "서울특별시 용산구 이촌동 300-27",
    "lng": 126.971946115671,
    "lat": 37.5201637323928,
    "cluster": 25
  },
  {
    "apt_name": "정우",
    "address": "서울특별시 용산구 이촌동 302-69",
    "lng": 126.967175097338,
    "lat": 37.520834110412,
    "cluster": 12
  },
  {
    "apt_name": "미주A",
    "address": "서울특별시 용산구 이촌동 302-54",
    "lng": 126.96909107853,
    "lat": 37.5204389068674,
    "cluster": 25
  },
  {
    "apt_name": "동원베네스트",
    "address": "서울특별시 용산구 이촌동 434",
    "lng": 126.955057305679,
    "lat": 37.5269327905,
    "cluster": 22
  },
  {
    "apt_name": "한강동부",
    "address": "서울특별시 용산구 이촌동 302-63",
    "lng": 126.968120590521,
    "lat": 37.5205037914224,
    "cluster": 0
  },
  {
    "apt_name": "장미",
    "address": "서울특별시 용산구 이촌동 302-64",
    "lng": 126.967685487633,
    "lat": 37.5200747957603,
    "cluster": 3
  },
  {
    "apt_name": "이촌코오롱(B)",
    "address": "서울특별시 용산구 이촌동 414",
    "lng": 126.980020590419,
    "lat": 37.5190183972899,
    "cluster": 0
  },
  {
    "apt_name": "중앙하이츠(A)",
    "address": "서울특별시 용산구 이촌동 300-17",
    "lng": 126.977017911658,
    "lat": 37.5181277500729,
    "cluster": 1
  },
  {
    "apt_name": "한남힐스테이트",
    "address": "서울특별시 용산구 한남동 807",
    "lng": 127.003788357426,
    "lat": 37.5284614513001,
    "cluster": 0
  },
  {
    "apt_name": "한성1",
    "address": "서울특별시 용산구 한남동 29-4",
    "lng": 127.009080645372,
    "lat": 37.5345489584788,
    "cluster": 3
  },
  {
    "apt_name": "한남파라곤",
    "address": "서울특별시 용산구 한남동 825",
    "lng": 127.003281312445,
    "lat": 37.5391384179097,
    "cluster": 18
  },
  {
    "apt_name": "한남동리첸시아",
    "address": "서울특별시 용산구 한남동 72-1",
    "lng": 127.007899663322,
    "lat": 37.5344707464089,
    "cluster": 0
  },
  {
    "apt_name": "힐탑트레져1동",
    "address": "서울특별시 용산구 한남동 1-44",
    "lng": 127.013718478343,
    "lat": 37.5384658809255,
    "cluster": 14
  },
  {
    "apt_name": "한남더힐",
    "address": "서울특별시 용산구 한남동 810",
    "lng": 127.009490412576,
    "lat": 37.5369726180181,
    "cluster": 14
  },
  {
    "apt_name": "유엔맨숀",
    "address": "서울특별시 용산구 한남동 1-35",
    "lng": 127.011679040439,
    "lat": 37.535879237882,
    "cluster": 27
  },
  {
    "apt_name": "한남동동원베네스트",
    "address": "서울특별시 용산구 한남동 522-1",
    "lng": 127.007715042965,
    "lat": 37.5303376860557,
    "cluster": 18
  },
  {
    "apt_name": "태성1",
    "address": "서울특별시 용산구 한남동 644-2",
    "lng": 127.004213646558,
    "lat": 37.5329064373609,
    "cluster": 3
  },
  {
    "apt_name": "장미1",
    "address": "서울특별시 용산구 한남동 732-19",
    "lng": 126.998041073619,
    "lat": 37.5341575361698,
    "cluster": 11
  },
  {
    "apt_name": "뉴캐슬하우스",
    "address": "서울특별시 용산구 한남동 684-82",
    "lng": 127.000860554926,
    "lat": 37.5344286604465,
    "cluster": 0
  },
  {
    "apt_name": "성아1",
    "address": "서울특별시 용산구 한남동 263-10",
    "lng": 127.008636411833,
    "lat": 37.5342112065771,
    "cluster": 25
  },
  {
    "apt_name": "시범",
    "address": "서울특별시 용산구 한남동 1-349",
    "lng": 127.01237145937,
    "lat": 37.5391764683691,
    "cluster": 10
  },
  {
    "apt_name": "리버티하우스",
    "address": "서울특별시 용산구 한남동 258",
    "lng": 127.008679105878,
    "lat": 37.533578250287,
    "cluster": 7
  },
  {
    "apt_name": "대림아르빌",
    "address": "서울특별시 용산구 한남동 808",
    "lng": 127.001357596006,
    "lat": 37.5349846633834,
    "cluster": 9
  },
  {
    "apt_name": "현대하이페리온",
    "address": "서울특별시 용산구 한남동 805",
    "lng": 127.004833426165,
    "lat": 37.5276866416786,
    "cluster": 2
  },
  {
    "apt_name": "효성빌리지",
    "address": "서울특별시 용산구 한남동 799",
    "lng": 127.012221435924,
    "lat": 37.5330091348787,
    "cluster": 11
  },
  {
    "apt_name": "대성이태리하우스",
    "address": "서울특별시 용산구 한남동 809",
    "lng": 127.003365704807,
    "lat": 37.5387697262658,
    "cluster": 2
  },
  {
    "apt_name": "리버탑",
    "address": "서울특별시 용산구 한남동 802",
    "lng": 127.008332127853,
    "lat": 37.5297194669812,
    "cluster": 2
  },
  {
    "apt_name": "오페라하우스WEST",
    "address": "서울특별시 용산구 한남동 665-2",
    "lng": 127.000807596418,
    "lat": 37.5336640714406,
    "cluster": 0
  },
  {
    "apt_name": "형우베스트빌3차",
    "address": "서울특별시 용산구 한남동 27-2",
    "lng": 127.010750957657,
    "lat": 37.5345512509341,
    "cluster": 0
  },
  {
    "apt_name": "현대안성타워",
    "address": "서울특별시 용산구 한남동 737-28",
    "lng": 126.997907654223,
    "lat": 37.5350861954377,
    "cluster": 8
  },
  {
    "apt_name": "한남하우스",
    "address": "서울특별시 용산구 한남동 723-3",
    "lng": 127.005525769768,
    "lat": 37.5381419180765,
    "cluster": 25
  },
  {
    "apt_name": "로얄튼빌라",
    "address": "서울특별시 용산구 한남동 1-297",
    "lng": 127.009843401774,
    "lat": 37.5324817307781,
    "cluster": 8
  },
  {
    "apt_name": "현대하이페리온II",
    "address": "서울특별시 용산구 한남동 550",
    "lng": 127.005962092469,
    "lat": 37.5285335318103,
    "cluster": 18
  },
  {
    "apt_name": "트윈빌비동",
    "address": "서울특별시 용산구 한남동 26-10",
    "lng": 127.010872655692,
    "lat": 37.5342584145129,
    "cluster": 0
  },
  {
    "apt_name": "한남동UNVILLAGE루하우스",
    "address": "서울특별시 용산구 한남동 1-51",
    "lng": 127.01246853178,
    "lat": 37.53640290881,
    "cluster": 0
  },
  {
    "apt_name": "신성미소시티",
    "address": "서울특별시 용산구 한남동 96-3",
    "lng": 127.007116895056,
    "lat": 37.5315178552422,
    "cluster": 20
  },
  {
    "apt_name": "한남로얄팰리스",
    "address": "서울특별시 용산구 한남동 686-30",
    "lng": 126.999286988317,
    "lat": 37.5337342600253,
    "cluster": 0
  },
  {
    "apt_name": "트윈빌에이동",
    "address": "서울특별시 용산구 한남동 26-5",
    "lng": 127.010366988737,
    "lat": 37.5339814022074,
    "cluster": 0
  },
  {
    "apt_name": "스카이빌2",
    "address": "서울특별시 용산구 한남동 737-60",
    "lng": 126.997558604766,
    "lat": 37.5352270151546,
    "cluster": 11
  },
  {
    "apt_name": "아울스타운",
    "address": "서울특별시 용산구 동빙고동 1-44",
    "lng": 126.995357605355,
    "lat": 37.5284518701986,
    "cluster": 27
  },
  {
    "apt_name": "파인힐빌",
    "address": "서울특별시 용산구 동빙고동 1-72",
    "lng": 126.995558578432,
    "lat": 37.5276144868192,
    "cluster": 13
  },
  {
    "apt_name": "현대플래티앙Ⅰ",
    "address": "서울특별시 용산구 동빙고동 1-67",
    "lng": 126.995627043395,
    "lat": 37.5272628283211,
    "cluster": 13
  },
  {
    "apt_name": "리버힐에이동",
    "address": "서울특별시 용산구 동빙고동 42-17",
    "lng": 126.996204226205,
    "lat": 37.5230015579892,
    "cluster": 13
  },
  {
    "apt_name": "현대플라티앙2",
    "address": "서울특별시 용산구 동빙고동 1-14",
    "lng": 126.996665052275,
    "lat": 37.5264966500801,
    "cluster": 13
  },
  {
    "apt_name": "힐하우스",
    "address": "서울특별시 용산구 동빙고동 1-30",
    "lng": 126.996392046439,
    "lat": 37.5269968783855,
    "cluster": 13
  },
  {
    "apt_name": "금호한신",
    "address": "서울특별시 성동구 금호동3가 1662",
    "lng": 127.0184661539,
    "lat": 37.5503878876474,
    "cluster": 8
  },
  {
    "apt_name": "금호1차푸르지오",
    "address": "서울특별시 성동구 금호동3가 917",
    "lng": 127.020725332593,
    "lat": 37.550574559989,
    "cluster": 8
  },
  {
    "apt_name": "금호자이2차",
    "address": "서울특별시 성동구 금호동3가 700",
    "lng": 127.021916573855,
    "lat": 37.5503795490386,
    "cluster": 18
  },
  {
    "apt_name": "욱현하이브Ⅲ",
    "address": "서울특별시 광진구 중곡동 699",
    "lng": 127.087867657521,
    "lat": 37.5545660100192,
    "cluster": 19
  },
  {
    "apt_name": "삼보글로벌101동",
    "address": "서울특별시 광진구 중곡동 647-1",
    "lng": 127.080302900363,
    "lat": 37.5597323089199,
    "cluster": 20
  },
  {
    "apt_name": "중곡1단지",
    "address": "서울특별시 광진구 중곡동 191-77",
    "lng": 127.078867897689,
    "lat": 37.5663930801518,
    "cluster": 25
  },
  {
    "apt_name": "에스케이",
    "address": "서울특별시 광진구 중곡동 292",
    "lng": 127.086494548803,
    "lat": 37.5688661073555,
    "cluster": 1
  },
  {
    "apt_name": "성원",
    "address": "서울특별시 광진구 중곡동 681",
    "lng": 127.07961710743,
    "lat": 37.5711840707054,
    "cluster": 27
  },
  {
    "apt_name": "중곡2단지",
    "address": "서울특별시 광진구 중곡동 190-26",
    "lng": 127.078414071305,
    "lat": 37.5667790987175,
    "cluster": 25
  },
  {
    "apt_name": "진흥아르미",
    "address": "서울특별시 광진구 중곡동 252-8",
    "lng": 127.075764124148,
    "lat": 37.5623759494783,
    "cluster": 27
  },
  {
    "apt_name": "주성AURA",
    "address": "서울특별시 광진구 중곡동 130-5",
    "lng": 127.086007885908,
    "lat": 37.5556350613344,
    "cluster": 24
  },
  {
    "apt_name": "중곡동광덕",
    "address": "서울특별시 광진구 중곡동 683",
    "lng": 127.079377521232,
    "lat": 37.568459982887,
    "cluster": 17
  },
  {
    "apt_name": "삼성로얄3",
    "address": "서울특별시 광진구 중곡동 109-2",
    "lng": 127.092623421765,
    "lat": 37.5551557720133,
    "cluster": 17
  },
  {
    "apt_name": "그린트리",
    "address": "서울특별시 광진구 중곡동 130-1",
    "lng": 127.085219265845,
    "lat": 37.5562082169518,
    "cluster": 9
  },
  {
    "apt_name": "대영(68-6)",
    "address": "서울특별시 광진구 중곡동 68-6",
    "lng": 127.091517197071,
    "lat": 37.5587977441539,
    "cluster": 22
  },
  {
    "apt_name": "삼민",
    "address": "서울특별시 광진구 중곡동 609",
    "lng": 127.083725371034,
    "lat": 37.5630936217203,
    "cluster": 15
  },
  {
    "apt_name": "대영2동",
    "address": "서울특별시 광진구 중곡동 133-9",
    "lng": 127.084278002053,
    "lat": 37.5563161112405,
    "cluster": 1
  },
  {
    "apt_name": "욱현",
    "address": "서울특별시 광진구 중곡동 90-18",
    "lng": 127.090536018636,
    "lat": 37.555868998749,
    "cluster": 9
  },
  {
    "apt_name": "두리",
    "address": "서울특별시 광진구 중곡동 135-13",
    "lng": 127.084047724818,
    "lat": 37.5574540546161,
    "cluster": 1
  },
  {
    "apt_name": "삼성로얄2",
    "address": "서울특별시 광진구 중곡동 109-13",
    "lng": 127.092234720732,
    "lat": 37.5551027372486,
    "cluster": 6
  },
  {
    "apt_name": "자양8차현대홈타운",
    "address": "서울특별시 광진구 자양동 789",
    "lng": 127.07203305701,
    "lat": 37.5334859623824,
    "cluster": 0
  },
  {
    "apt_name": "우성3",
    "address": "서울특별시 광진구 자양동 516",
    "lng": 127.071647065678,
    "lat": 37.53601431485,
    "cluster": 3
  },
  {
    "apt_name": "한강우성",
    "address": "서울특별시 광진구 자양동 87-1",
    "lng": 127.065722204383,
    "lat": 37.5325736855436,
    "cluster": 2
  },
  {
    "apt_name": "더샵스타시티",
    "address": "서울특별시 광진구 자양동 227-7",
    "lng": 127.072632021718,
    "lat": 37.5378031898538,
    "cluster": 2
  },
  {
    "apt_name": "자양2현대",
    "address": "서울특별시 광진구 자양동 761",
    "lng": 127.070623660109,
    "lat": 37.5341950903438,
    "cluster": 7
  },
  {
    "apt_name": "경남아너스빌",
    "address": "서울특별시 광진구 자양동 666-28",
    "lng": 127.083927287513,
    "lat": 37.5294776637935,
    "cluster": 13
  },
  {
    "apt_name": "이튼타워리버2차",
    "address": "서울특별시 광진구 자양동 507-6",
    "lng": 127.069164103799,
    "lat": 37.5355051981789,
    "cluster": 0
  },
  {
    "apt_name": "우방리버파크",
    "address": "서울특별시 광진구 자양동 793",
    "lng": 127.070517350129,
    "lat": 37.5312363568684,
    "cluster": 8
  },
  {
    "apt_name": "자양현대6",
    "address": "서울특별시 광진구 자양동 786",
    "lng": 127.071658855725,
    "lat": 37.5328457586157,
    "cluster": 7
  },
  {
    "apt_name": "이튼타워리버3차",
    "address": "서울특별시 광진구 자양동 855",
    "lng": 127.068060255215,
    "lat": 37.5329892543915,
    "cluster": 2
  },
  {
    "apt_name": "이튼타워리버1차",
    "address": "서울특별시 광진구 자양동 510-5",
    "lng": 127.069680102229,
    "lat": 37.5369131584956,
    "cluster": 2
  },
  {
    "apt_name": "자양우성7",
    "address": "서울특별시 광진구 자양동 783-1",
    "lng": 127.074596726286,
    "lat": 37.5363526161092,
    "cluster": 7
  },
  {
    "apt_name": "진넥스빌",
    "address": "서울특별시 광진구 자양동 588-20",
    "lng": 127.072674693365,
    "lat": 37.5304735227736,
    "cluster": 9
  },
  {
    "apt_name": "한화꿈에그린",
    "address": "서울특별시 광진구 자양동 853",
    "lng": 127.061846609299,
    "lat": 37.5336376083461,
    "cluster": 8
  },
  {
    "apt_name": "우성2",
    "address": "서울특별시 광진구 자양동 520-2",
    "lng": 127.073984735652,
    "lat": 37.5332682453268,
    "cluster": 7
  },
  {
    "apt_name": "한양",
    "address": "서울특별시 광진구 자양동 695",
    "lng": 127.091000782641,
    "lat": 37.531444176204,
    "cluster": 3
  },
  {
    "apt_name": "한솔리베르",
    "address": "서울특별시 광진구 자양동 672",
    "lng": 127.084678683607,
    "lat": 37.5281408521584,
    "cluster": 13
  },
  {
    "apt_name": "경남",
    "address": "서울특별시 광진구 자양동 641",
    "lng": 127.078966591413,
    "lat": 37.5289477821397,
    "cluster": ""
  },
  {
    "apt_name": "현대3",
    "address": "서울특별시 광진구 자양동 670",
    "lng": 127.083446711719,
    "lat": 37.5285796157998,
    "cluster": 13
  },
  {
    "apt_name": "우성1",
    "address": "서울특별시 광진구 자양동 579",
    "lng": 127.075573577702,
    "lat": 37.5344089874125,
    "cluster": 3
  },
  {
    "apt_name": "대동",
    "address": "서울특별시 광진구 자양동 784-1",
    "lng": 127.06832734047,
    "lat": 37.5364211918477,
    "cluster": 1
  },
  {
    "apt_name": "와이엠프라젠스파",
    "address": "서울특별시 광진구 자양동 663-21",
    "lng": 127.084153463706,
    "lat": 37.5309063106376,
    "cluster": 27
  },
  {
    "apt_name": "자양현대5",
    "address": "서울특별시 광진구 자양동 642",
    "lng": 127.078281546378,
    "lat": 37.5286009922175,
    "cluster": ""
  },
  {
    "apt_name": "자양7차현대홈타운",
    "address": "서울특별시 광진구 자양동 788",
    "lng": 127.069768196916,
    "lat": 37.5329778962287,
    "cluster": 8
  },
  {
    "apt_name": "광진트라팰리스",
    "address": "서울특별시 광진구 자양동 854",
    "lng": 127.067948157119,
    "lat": 37.5318922601242,
    "cluster": 20
  },
  {
    "apt_name": "자양10차현대홈타운",
    "address": "서울특별시 광진구 자양동 792",
    "lng": 127.070499521282,
    "lat": 37.5334495863743,
    "cluster": 8
  },
  {
    "apt_name": "우성4",
    "address": "서울특별시 광진구 자양동 578",
    "lng": 127.075811892522,
    "lat": 37.535229646208,
    "cluster": 3
  },
  {
    "apt_name": "기산빌라트",
    "address": "서울특별시 광진구 자양동 643-19",
    "lng": 127.080563760033,
    "lat": 37.5279573136231,
    "cluster": ""
  },
  {
    "apt_name": "청정(A)",
    "address": "서울특별시 광진구 자양동 24-28",
    "lng": 127.063949134096,
    "lat": 37.541100825238,
    "cluster": 8
  },
  {
    "apt_name": "자양삼성",
    "address": "서울특별시 광진구 자양동 787",
    "lng": 127.071628722208,
    "lat": 37.5322139950177,
    "cluster": 7
  },
  {
    "apt_name": "구의현대홈시티",
    "address": "서울특별시 광진구 자양동 779-8",
    "lng": 127.083069490545,
    "lat": 37.5375232159153,
    "cluster": 20
  },
  {
    "apt_name": "자양동현대",
    "address": "서울특별시 광진구 자양동 645-5",
    "lng": 127.082406512435,
    "lat": 37.5281164204926,
    "cluster": ""
  },
  {
    "apt_name": "한강아남",
    "address": "서울특별시 광진구 자양동 830",
    "lng": 127.065076657108,
    "lat": 37.5333808893661,
    "cluster": 20
  },
  {
    "apt_name": "이튼타워리버5차",
    "address": "서울특별시 광진구 자양동 856",
    "lng": 127.06903104242,
    "lat": 37.5321855386616,
    "cluster": 18
  },
  {
    "apt_name": "자양힐101동",
    "address": "서울특별시 광진구 자양동 810",
    "lng": 127.081730289398,
    "lat": 37.5401127232157,
    "cluster": 9
  },
  {
    "apt_name": "한강현대",
    "address": "서울특별시 광진구 자양동 829",
    "lng": 127.066826558539,
    "lat": 37.5330883482377,
    "cluster": 2
  },
  {
    "apt_name": "한강극동",
    "address": "서울특별시 광진구 자양동 57-103",
    "lng": 127.064448158666,
    "lat": 37.5337685742881,
    "cluster": 2
  },
  {
    "apt_name": "금강KCC",
    "address": "서울특별시 광진구 자양동 791",
    "lng": 127.074350784543,
    "lat": 37.5376407510953,
    "cluster": 7
  },
  {
    "apt_name": "유림",
    "address": "서울특별시 광진구 자양동 770-1",
    "lng": 127.081169666911,
    "lat": 37.5392069743715,
    "cluster": 12
  },
  {
    "apt_name": "금성",
    "address": "서울특별시 광진구 자양동 582-15",
    "lng": 127.073877736594,
    "lat": 37.5320381757313,
    "cluster": 9
  },
  {
    "apt_name": "로얄동아",
    "address": "서울특별시 광진구 자양동 644",
    "lng": 127.081403123975,
    "lat": 37.5282016302996,
    "cluster": ""
  },
  {
    "apt_name": "한라아파트",
    "address": "서울특별시 광진구 자양동 762",
    "lng": 127.070038503855,
    "lat": 37.5356576727188,
    "cluster": 7
  },
  {
    "apt_name": "현대강변",
    "address": "서울특별시 광진구 자양동 673",
    "lng": 127.085909787145,
    "lat": 37.5284372034525,
    "cluster": 13
  },
  {
    "apt_name": "우성6",
    "address": "서울특별시 광진구 자양동 515-1",
    "lng": 127.070594373344,
    "lat": 37.5367334966311,
    "cluster": 7
  },
  {
    "apt_name": "한강성원",
    "address": "서울특별시 광진구 자양동 831-1",
    "lng": 127.066005089171,
    "lat": 37.5332585587887,
    "cluster": 2
  },
  {
    "apt_name": "광진하나플러스",
    "address": "서울특별시 광진구 자양동 811",
    "lng": 127.075728758153,
    "lat": 37.5295481676458,
    "cluster": 13
  },
  {
    "apt_name": "우성5",
    "address": "서울특별시 광진구 자양동 553-41",
    "lng": 127.071256458124,
    "lat": 37.5347888300631,
    "cluster": 3
  },
  {
    "apt_name": "자양9차현대홈타운",
    "address": "서울특별시 광진구 자양동 790",
    "lng": 127.069196416727,
    "lat": 37.5337410199579,
    "cluster": 8
  },
  {
    "apt_name": "광진하우스토리한강",
    "address": "서울특별시 광진구 자양동 813",
    "lng": 127.089792805342,
    "lat": 37.5300176447303,
    "cluster": 0
  },
  {
    "apt_name": "태천해오름주상복합",
    "address": "서울특별시 광진구 자양동 219-31",
    "lng": 127.082254203289,
    "lat": 37.5363276186846,
    "cluster": 4
  },
  {
    "apt_name": "도성",
    "address": "서울특별시 광진구 자양동 610-47",
    "lng": 127.077208697139,
    "lat": 37.534077803071,
    "cluster": 22
  },
  {
    "apt_name": "태원강변",
    "address": "서울특별시 광진구 자양동 588",
    "lng": 127.072238213299,
    "lat": 37.5305877672236,
    "cluster": 7
  },
  {
    "apt_name": "자양강변I-Park",
    "address": "서울특별시 광진구 자양동 809",
    "lng": 127.069650109926,
    "lat": 37.5313074199095,
    "cluster": 18
  },
  {
    "apt_name": "현대빌라트(643-23)",
    "address": "서울특별시 광진구 자양동 643-23",
    "lng": 127.080060413331,
    "lat": 37.5281471365475,
    "cluster": ""
  },
  {
    "apt_name": "구의현대하이엘",
    "address": "서울특별시 광진구 자양동 779-11",
    "lng": 127.082981639519,
    "lat": 37.5378869213256,
    "cluster": 8
  },
  {
    "apt_name": "파라다이스리버빌",
    "address": "서울특별시 광진구 자양동 690-58",
    "lng": 127.088621201228,
    "lat": 37.5302264807888,
    "cluster": 27
  },
  {
    "apt_name": "대원리버빌",
    "address": "서울특별시 광진구 자양동 587-6",
    "lng": 127.071771458922,
    "lat": 37.5306334622657,
    "cluster": 7
  },
  {
    "apt_name": "대원캐슬빌",
    "address": "서울특별시 광진구 자양동 624-45",
    "lng": 127.081810994235,
    "lat": 37.5345464684328,
    "cluster": 19
  },
  {
    "apt_name": "대종리버빌",
    "address": "서울특별시 광진구 자양동 553-314",
    "lng": 127.07009126217,
    "lat": 37.5323084414174,
    "cluster": 16
  },
  {
    "apt_name": "자양훼밀리",
    "address": "서울특별시 광진구 자양동 678-8",
    "lng": 127.085145836788,
    "lat": 37.5310543546225,
    "cluster": 27
  },
  {
    "apt_name": "스카이빌1차",
    "address": "서울특별시 광진구 자양동 767",
    "lng": 127.08104239813,
    "lat": 37.5402742059609,
    "cluster": 17
  },
  {
    "apt_name": "삼성홈타운",
    "address": "서울특별시 광진구 자양동 770-2",
    "lng": 127.080966665682,
    "lat": 37.5391955809321,
    "cluster": 0
  },
  {
    "apt_name": "노블스카이",
    "address": "서울특별시 광진구 자양동 769-1",
    "lng": 127.081635312991,
    "lat": 37.5393463984714,
    "cluster": 17
  },
  {
    "apt_name": "청정(B)",
    "address": "서울특별시 광진구 자양동 24-31",
    "lng": 127.063911176572,
    "lat": 37.5409076714497,
    "cluster": 8
  },
  {
    "apt_name": "스카이빌2차",
    "address": "서울특별시 광진구 자양동 769-3",
    "lng": 127.082193135197,
    "lat": 37.5394473740167,
    "cluster": 1
  },
  {
    "apt_name": "안암골벽산",
    "address": "서울특별시 동대문구 제기동 153",
    "lng": 127.03191008258,
    "lat": 37.5834528290559,
    "cluster": 1
  },
  {
    "apt_name": "이수브라운스톤",
    "address": "서울특별시 동대문구 제기동 252",
    "lng": 127.034083932884,
    "lat": 37.5822001108387,
    "cluster": 9
  },
  {
    "apt_name": "한신아파트",
    "address": "서울특별시 동대문구 제기동 1212",
    "lng": 127.0391170512,
    "lat": 37.5888514825052,
    "cluster": 16
  },
  {
    "apt_name": "현대",
    "address": "서울특별시 동대문구 제기동 892-66",
    "lng": 127.035753667475,
    "lat": 37.5801884188608,
    "cluster": 20
  },
  {
    "apt_name": "경동미주",
    "address": "서울특별시 동대문구 제기동 892-68",
    "lng": 127.035594125987,
    "lat": 37.5791794440151,
    "cluster": 25
  },
  {
    "apt_name": "공성",
    "address": "서울특별시 동대문구 제기동 892-65",
    "lng": 127.035869062302,
    "lat": 37.580965220669,
    "cluster": 25
  },
  {
    "apt_name": "동성네스트빌(1158-17)",
    "address": "서울특별시 동대문구 제기동 1158-17",
    "lng": 127.033096768343,
    "lat": 37.5800342227424,
    "cluster": 16
  },
  {
    "apt_name": "월드캐슬",
    "address": "서울특별시 동대문구 제기동 1158-25",
    "lng": 127.03346340419,
    "lat": 37.5799154584882,
    "cluster": 6
  },
  {
    "apt_name": "어반넥서스",
    "address": "서울특별시 동대문구 제기동 1158-40",
    "lng": 127.033707327392,
    "lat": 37.5788107705119,
    "cluster": 18
  },
  {
    "apt_name": "어진재",
    "address": "서울특별시 동대문구 제기동 1213",
    "lng": 127.037911611595,
    "lat": 37.5909696582811,
    "cluster": 18
  },
  {
    "apt_name": "홍파",
    "address": "서울특별시 동대문구 제기동 120-10",
    "lng": 127.039975872007,
    "lat": 37.5869787519047,
    "cluster": 12
  },
  {
    "apt_name": "동성네스트빌2",
    "address": "서울특별시 동대문구 제기동 274-21",
    "lng": 127.033302014283,
    "lat": 37.5802776135504,
    "cluster": 16
  },
  {
    "apt_name": "효성트럼프",
    "address": "서울특별시 동대문구 제기동 134-73",
    "lng": 127.035326148725,
    "lat": 37.5851463540556,
    "cluster": 17
  },
  {
    "apt_name": "청우",
    "address": "서울특별시 동대문구 제기동 1158-10",
    "lng": 127.032715779637,
    "lat": 37.5796951047535,
    "cluster": 16
  },
  {
    "apt_name": "미주",
    "address": "서울특별시 동대문구 청량리동 235-1",
    "lng": 127.046766367893,
    "lat": 37.5840013582663,
    "cluster": 25
  },
  {
    "apt_name": "한신",
    "address": "서울특별시 동대문구 청량리동 60",
    "lng": 127.04920145701,
    "lat": 37.5879992451232,
    "cluster": 27
  },
  {
    "apt_name": "홍릉동부",
    "address": "서울특별시 동대문구 청량리동 212",
    "lng": 127.046191750859,
    "lat": 37.5861305409713,
    "cluster": 9
  },
  {
    "apt_name": "현대코아",
    "address": "서울특별시 동대문구 청량리동 738",
    "lng": 127.044390129883,
    "lat": 37.5814403911391,
    "cluster": 15
  },
  {
    "apt_name": "광남캐스빌",
    "address": "서울특별시 동대문구 청량리동 425",
    "lng": 127.044514936847,
    "lat": 37.5860819009296,
    "cluster": 21
  },
  {
    "apt_name": "상그레빌",
    "address": "서울특별시 동대문구 청량리동 949",
    "lng": 127.040938409726,
    "lat": 37.5951233909284,
    "cluster": 27
  },
  {
    "apt_name": "신내",
    "address": "서울특별시 중랑구 묵동 13",
    "lng": 127.08487405604,
    "lat": 37.6164130659246,
    "cluster": 1
  },
  {
    "apt_name": "월드메르디앙",
    "address": "서울특별시 중랑구 묵동 392",
    "lng": 127.073460788051,
    "lat": 37.6130203926036,
    "cluster": 8
  },
  {
    "apt_name": "브라운스톤태릉",
    "address": "서울특별시 중랑구 묵동 387",
    "lng": 127.08242725632,
    "lat": 37.6187414214185,
    "cluster": 20
  },
  {
    "apt_name": "한국",
    "address": "서울특별시 중랑구 묵동 378",
    "lng": 127.073491872132,
    "lat": 37.6143378887968,
    "cluster": 16
  },
  {
    "apt_name": "신안1",
    "address": "서울특별시 중랑구 묵동 381",
    "lng": 127.080992546994,
    "lat": 37.6128551779041,
    "cluster": 16
  },
  {
    "apt_name": "극동늘푸른",
    "address": "서울특별시 중랑구 묵동 379",
    "lng": 127.076129132154,
    "lat": 37.6146144421553,
    "cluster": 1
  },
  {
    "apt_name": "공감대",
    "address": "서울특별시 중랑구 묵동 171-4",
    "lng": 127.078311115034,
    "lat": 37.6136159805342,
    "cluster": 16
  },
  {
    "apt_name": "월등스카이뷰",
    "address": "서울특별시 중랑구 묵동 170-27",
    "lng": 127.077050994091,
    "lat": 37.6141897486016,
    "cluster": 6
  },
  {
    "apt_name": "신안3",
    "address": "서울특별시 중랑구 묵동 384",
    "lng": 127.081779175958,
    "lat": 37.6124746884914,
    "cluster": 1
  },
  {
    "apt_name": "묵동포레시타",
    "address": "서울특별시 중랑구 묵동 393",
    "lng": 127.075518917001,
    "lat": 37.6093953160834,
    "cluster": 18
  },
  {
    "apt_name": "금호어울림",
    "address": "서울특별시 중랑구 묵동 386",
    "lng": 127.080041928241,
    "lat": 37.6127259039377,
    "cluster": 20
  },
  {
    "apt_name": "동구햇살",
    "address": "서울특별시 중랑구 묵동 388",
    "lng": 127.074443044774,
    "lat": 37.6133092647094,
    "cluster": 1
  },
  {
    "apt_name": "위더스빌",
    "address": "서울특별시 중랑구 묵동 169-11",
    "lng": 127.077140635067,
    "lat": 37.6145675645809,
    "cluster": 4
  },
  {
    "apt_name": "SM해그린",
    "address": "서울특별시 중랑구 묵동 390",
    "lng": 127.080167090098,
    "lat": 37.6132622675986,
    "cluster": 6
  },
  {
    "apt_name": "신도브래뉴",
    "address": "서울특별시 중랑구 묵동 169-10",
    "lng": 127.076832171623,
    "lat": 37.6150706975135,
    "cluster": 20
  },
  {
    "apt_name": "현대아이파크",
    "address": "서울특별시 중랑구 묵동 385",
    "lng": 127.073659575819,
    "lat": 37.6105098434999,
    "cluster": 1
  },
  {
    "apt_name": "신도",
    "address": "서울특별시 중랑구 묵동 167",
    "lng": 127.077372816699,
    "lat": 37.6168561028337,
    "cluster": 15
  },
  {
    "apt_name": "신내대림아파트",
    "address": "서울특별시 중랑구 묵동 20",
    "lng": 127.088201260977,
    "lat": 37.6160515822467,
    "cluster": 1
  },
  {
    "apt_name": "묵동자이(1단지)",
    "address": "서울특별시 중랑구 묵동 164-4",
    "lng": 127.077906819525,
    "lat": 37.6148560082174,
    "cluster": 24
  },
  {
    "apt_name": "신내두산아파트",
    "address": "서울특별시 중랑구 묵동 20",
    "lng": 127.088201260977,
    "lat": 37.6160515822467,
    "cluster": 1
  },
  {
    "apt_name": "세방",
    "address": "서울특별시 중랑구 묵동 383",
    "lng": 127.083558941061,
    "lat": 37.6154121957482,
    "cluster": 17
  },
  {
    "apt_name": "헤르만스테이트",
    "address": "서울특별시 중랑구 묵동 162-17",
    "lng": 127.078752756276,
    "lat": 37.6162266607022,
    "cluster": 19
  },
  {
    "apt_name": "세원",
    "address": "서울특별시 중랑구 묵동 377",
    "lng": 127.07433885262,
    "lat": 37.6092210031192,
    "cluster": 1
  },
  {
    "apt_name": "신안2",
    "address": "서울특별시 중랑구 묵동 382",
    "lng": 127.080097893145,
    "lat": 37.6141121269446,
    "cluster": 1
  },
  {
    "apt_name": "묵동자이(2단지)",
    "address": "서울특별시 중랑구 묵동 170-1",
    "lng": 127.077552615476,
    "lat": 37.6138458731114,
    "cluster": 20
  },
  {
    "apt_name": "삼성",
    "address": "서울특별시 중랑구 묵동 161-4",
    "lng": 127.078793738254,
    "lat": 37.6168516487745,
    "cluster": 2
  },
  {
    "apt_name": "풍산쉐르빌",
    "address": "서울특별시 중랑구 묵동 184-20",
    "lng": 127.081025387234,
    "lat": 37.6067952829259,
    "cluster": 17
  },
  {
    "apt_name": "문수해오름",
    "address": "서울특별시 중랑구 묵동 174-9",
    "lng": 127.078266270131,
    "lat": 37.6131900228935,
    "cluster": 16
  },
  {
    "apt_name": "태창네스트빌",
    "address": "서울특별시 중랑구 묵동 389",
    "lng": 127.077201366836,
    "lat": 37.6163425618207,
    "cluster": 6
  },
  {
    "apt_name": "효산센터빌",
    "address": "서울특별시 중랑구 묵동 391",
    "lng": 127.077679848035,
    "lat": 37.6077860079865,
    "cluster": 16
  },
  {
    "apt_name": "고덕골든빌(101동)",
    "address": "서울특별시 중랑구 묵동 168-8",
    "lng": 127.076693068985,
    "lat": 37.6160487206318,
    "cluster": 16
  },
  {
    "apt_name": "고덕골든빌(102동)",
    "address": "서울특별시 중랑구 묵동 168-16",
    "lng": 127.076653104219,
    "lat": 37.6161764166197,
    "cluster": 16
  },
  {
    "apt_name": "고덕골든빌(103동)",
    "address": "서울특별시 중랑구 묵동 168-7",
    "lng": 127.076608299869,
    "lat": 37.6163342988353,
    "cluster": 16
  },
  {
    "apt_name": "신도2",
    "address": "서울특별시 중랑구 묵동 380",
    "lng": 127.078182307202,
    "lat": 37.6171576705806,
    "cluster": 16
  },
  {
    "apt_name": "대성웰빙",
    "address": "서울특별시 중랑구 묵동 172-3",
    "lng": 127.079238163819,
    "lat": 37.6139399878602,
    "cluster": 6
  },
  {
    "apt_name": "휴아름스튜디오",
    "address": "서울특별시 성북구 성북동1가 35-22",
    "lng": 127.005414564243,
    "lat": 37.5884380675385,
    "cluster": 18
  },
  {
    "apt_name": "스타팰리스",
    "address": "서울특별시 성북구 성북동1가 115-5",
    "lng": 127.003143968434,
    "lat": 37.590751267696,
    "cluster": 1
  },
  {
    "apt_name": "돈암동일하이빌",
    "address": "서울특별시 성북구 동소문동5가 120",
    "lng": 127.014554680858,
    "lat": 37.5916186082621,
    "cluster": 20
  },
  {
    "apt_name": "한신플러스C",
    "address": "서울특별시 성북구 동소문동7가 23",
    "lng": 127.014148072591,
    "lat": 37.5951748724593,
    "cluster": 8
  },
  {
    "apt_name": "브라운스톤동선",
    "address": "서울특별시 성북구 동소문동7가 120",
    "lng": 127.013792053736,
    "lat": 37.5963328688368,
    "cluster": 19
  },
  {
    "apt_name": "샤인힐",
    "address": "서울특별시 성북구 동소문동7가 75-10",
    "lng": 127.012991102956,
    "lat": 37.5967665167508,
    "cluster": 17
  },
  {
    "apt_name": "삼호4",
    "address": "서울특별시 노원구 월계동 12",
    "lng": 127.064158523429,
    "lat": 37.6265226116642,
    "cluster": 25
  },
  {
    "apt_name": "삼창",
    "address": "서울특별시 노원구 월계동 448-3",
    "lng": 127.06022177044,
    "lat": 37.6185049088983,
    "cluster": 12
  },
  {
    "apt_name": "풍림아이원",
    "address": "서울특별시 노원구 월계동 944",
    "lng": 127.066759655645,
    "lat": 37.6166125600718,
    "cluster": 8
  },
  {
    "apt_name": "건양노블레스빌",
    "address": "서울특별시 노원구 월계동 938",
    "lng": 127.066444397558,
    "lat": 37.6172053178639,
    "cluster": 16
  },
  {
    "apt_name": "초안1",
    "address": "서울특별시 노원구 월계동 923",
    "lng": 127.04430328766,
    "lat": 37.6329811765686,
    "cluster": ""
  },
  {
    "apt_name": "사슴3",
    "address": "서울특별시 노원구 월계동 320-11",
    "lng": 127.059686274576,
    "lat": 37.6317295957652,
    "cluster": 15
  },
  {
    "apt_name": "미성",
    "address": "서울특별시 노원구 월계동 13",
    "lng": 127.065415722199,
    "lat": 37.6245905661541,
    "cluster": 2
  },
  {
    "apt_name": "미륭",
    "address": "서울특별시 노원구 월계동 13",
    "lng": 127.065415722199,
    "lat": 37.6245905661541,
    "cluster": 25
  },
  {
    "apt_name": "롯데캐슬루나",
    "address": "서울특별시 노원구 월계동 947",
    "lng": 127.049792127486,
    "lat": 37.6265472079358,
    "cluster": ""
  },
  {
    "apt_name": "유원",
    "address": "서울특별시 노원구 월계동 880",
    "lng": 127.045150010195,
    "lat": 37.6295888236278,
    "cluster": ""
  },
  {
    "apt_name": "한진한화그랑빌",
    "address": "서울특별시 노원구 월계동 18",
    "lng": 127.068427518791,
    "lat": 37.617995702515,
    "cluster": 1
  },
  {
    "apt_name": "월계역신도브래뉴",
    "address": "서울특별시 노원구 월계동 942",
    "lng": 127.058693594607,
    "lat": 37.6290827264263,
    "cluster": 17
  },
  {
    "apt_name": "성원(사슴4)",
    "address": "서울특별시 노원구 월계동 322-1",
    "lng": 127.062513840528,
    "lat": 37.6294157509446,
    "cluster": 15
  },
  {
    "apt_name": "청백4",
    "address": "서울특별시 노원구 월계동 781",
    "lng": 127.051711047208,
    "lat": 37.6316907439266,
    "cluster": 12
  },
  {
    "apt_name": "주공2",
    "address": "서울특별시 노원구 월계동 556",
    "lng": 127.052782051404,
    "lat": 37.6281259684663,
    "cluster": 3
  },
  {
    "apt_name": "성북역신도브래뉴",
    "address": "서울특별시 노원구 월계동 941",
    "lng": 127.058997534912,
    "lat": 37.6232025554202,
    "cluster": 26
  },
  {
    "apt_name": "삼호3",
    "address": "서울특별시 노원구 월계동 13",
    "lng": 127.065415722199,
    "lat": 37.6245905661541,
    "cluster": 25
  },
  {
    "apt_name": "초안2",
    "address": "서울특별시 노원구 월계동 924",
    "lng": 127.04292063833,
    "lat": 37.6313218014175,
    "cluster": ""
  },
  {
    "apt_name": "대우",
    "address": "서울특별시 노원구 월계동 775",
    "lng": 127.051353745494,
    "lat": 37.633188969017,
    "cluster": 27
  },
  {
    "apt_name": "청백3",
    "address": "서울특별시 노원구 월계동 780",
    "lng": 127.050185552827,
    "lat": 37.6317703289986,
    "cluster": 12
  },
  {
    "apt_name": "서광",
    "address": "서울특별시 노원구 월계동 922",
    "lng": 127.064911846997,
    "lat": 37.6231411562914,
    "cluster": 15
  },
  {
    "apt_name": "동신",
    "address": "서울특별시 노원구 월계동 436",
    "lng": 127.061266120643,
    "lat": 37.617552477555,
    "cluster": 3
  },
  {
    "apt_name": "꿈의숲SKVIEW",
    "address": "서울특별시 노원구 월계동 949",
    "lng": 127.053802477095,
    "lat": 37.621795353791,
    "cluster": 22
  },
  {
    "apt_name": "극동",
    "address": "서울특별시 노원구 월계동 803-1",
    "lng": 127.045906276065,
    "lat": 37.6295411399429,
    "cluster": ""
  },
  {
    "apt_name": "월계흥화브라운빌",
    "address": "서울특별시 노원구 월계동 939",
    "lng": 127.04396713928,
    "lat": 37.6316105424881,
    "cluster": ""
  },
  {
    "apt_name": "초안산쌍용스윗닷홈",
    "address": "서울특별시 노원구 월계동 945",
    "lng": 127.044410845954,
    "lat": 37.6305824413885,
    "cluster": ""
  },
  {
    "apt_name": "세양청마루",
    "address": "서울특별시 노원구 월계동 943",
    "lng": 127.060663621701,
    "lat": 37.6207224637927,
    "cluster": 8
  },
  {
    "apt_name": "한일1",
    "address": "서울특별시 노원구 월계동 926",
    "lng": 127.061560974006,
    "lat": 37.6219706775366,
    "cluster": 15
  },
  {
    "apt_name": "우남(저층)",
    "address": "서울특별시 노원구 월계동 492-1",
    "lng": 127.061940533586,
    "lat": 37.6149807952546,
    "cluster": 15
  },
  {
    "apt_name": "한일2",
    "address": "서울특별시 노원구 월계동 927",
    "lng": 127.062004500362,
    "lat": 37.6212224455872,
    "cluster": 16
  },
  {
    "apt_name": "성북맨션",
    "address": "서울특별시 노원구 월계동 383-40",
    "lng": 127.060187084406,
    "lat": 37.6224071938547,
    "cluster": 25
  },
  {
    "apt_name": "장은하이빌",
    "address": "서울특별시 노원구 월계동 931",
    "lng": 127.061789932887,
    "lat": 37.6206406103183,
    "cluster": 16
  },
  {
    "apt_name": "우남푸르미아",
    "address": "서울특별시 노원구 월계동 946",
    "lng": 127.057058455459,
    "lat": 37.6328070332115,
    "cluster": 26
  },
  {
    "apt_name": "우남그랜드",
    "address": "서울특별시 노원구 월계동 930",
    "lng": 127.067452153473,
    "lat": 37.6158487589869,
    "cluster": 16
  },
  {
    "apt_name": "삼능스페이스향",
    "address": "서울특별시 노원구 월계동 380-1",
    "lng": 127.060557433537,
    "lat": 37.6240096803094,
    "cluster": 26
  },
  {
    "apt_name": "송암",
    "address": "서울특별시 노원구 월계동 496-2",
    "lng": 127.056966984565,
    "lat": 37.6196855576631,
    "cluster": 21
  },
  {
    "apt_name": "상림마을7단지아이파크(709~712동)BL1-10",
    "address": "서울특별시 은평구 진관동 12",
    "lng": 126.927730495248,
    "lat": 37.644833690056,
    "cluster": ""
  },
  {
    "apt_name": "구파발9단지래미안(916~928동)BL3-2",
    "address": "서울특별시 은평구 진관동 25",
    "lng": 126.920017019451,
    "lat": 37.6438624977627,
    "cluster": 27
  },
  {
    "apt_name": "마고정3단지센트레빌(310~322동)BL2-3",
    "address": "서울특별시 은평구 진관동 107",
    "lng": 126.927340294242,
    "lat": 37.6330478499663,
    "cluster": 22
  },
  {
    "apt_name": "은평뉴타운기자촌11단지",
    "address": "서울특별시 은평구 진관동 150",
    "lng": 126.933903038575,
    "lat": 37.6341673992865,
    "cluster": ""
  },
  {
    "apt_name": "박석고개1단지힐스테이트(116~131동)BL2-1",
    "address": "서울특별시 은평구 진관동 102",
    "lng": 126.922287528799,
    "lat": 37.6330388638858,
    "cluster": 19
  },
  {
    "apt_name": "상림마을8단지롯데캐슬(810~820동)BL1-1",
    "address": "서울특별시 은평구 진관동 19",
    "lng": 126.922786444814,
    "lat": 37.6444412427595,
    "cluster": 22
  },
  {
    "apt_name": "상림마을7단지아이파크(706~708동)BL1-3",
    "address": "서울특별시 은평구 진관동 13",
    "lng": 126.92625411184,
    "lat": 37.6460636102252,
    "cluster": ""
  },
  {
    "apt_name": "은평뉴타운 제각말 푸르지오(5-4단지)",
    "address": "서울특별시 은평구 진관동 92",
    "lng": 126.933104177994,
    "lat": 37.6362276825971,
    "cluster": ""
  },
  {
    "apt_name": "폭포동4단지힐스테이트(408~422동)BL3-9",
    "address": "서울특별시 은평구 진관동 140",
    "lng": 126.932075644383,
    "lat": 37.6297936071878,
    "cluster": ""
  },
  {
    "apt_name": "은평뉴타운 제각말 푸르지오(5-3단지)",
    "address": "서울특별시 은평구 진관동 94",
    "lng": 126.934876986729,
    "lat": 37.6390030772965,
    "cluster": ""
  },
  {
    "apt_name": "상림마을8단지롯데캐슬(821~830동)BL1-12",
    "address": "서울특별시 은평구 진관동 20",
    "lng": 126.922606227427,
    "lat": 37.6419845917913,
    "cluster": 13
  },
  {
    "apt_name": "우물골2단지두산위브(209~222동)BL2-8",
    "address": "서울특별시 은평구 진관동 88",
    "lng": 126.931411345217,
    "lat": 37.6363158180727,
    "cluster": ""
  },
  {
    "apt_name": "박석고개1단지힐스테이트(112~115동)BL2-13",
    "address": "서울특별시 은평구 진관동 123",
    "lng": 126.921332402925,
    "lat": 37.6306462940032,
    "cluster": 13
  },
  {
    "apt_name": "상림마을7단지아이파크(713~718동)BL1-11",
    "address": "서울특별시 은평구 진관동 15",
    "lng": 126.926967082978,
    "lat": 37.6441911788633,
    "cluster": ""
  },
  {
    "apt_name": "상림마을8단지롯데캐슬(801~809동)BL1-2",
    "address": "서울특별시 은평구 진관동 14",
    "lng": 126.924900323142,
    "lat": 37.6452288057488,
    "cluster": ""
  },
  {
    "apt_name": "상림마을6단지푸르지오(622~629동)BL1-5",
    "address": "서울특별시 은평구 진관동 5",
    "lng": 126.928847230347,
    "lat": 37.6479604213713,
    "cluster": ""
  },
  {
    "apt_name": "상림마을6단지푸르지오(606~614동)BL1-7",
    "address": "서울특별시 은평구 진관동 2",
    "lng": 126.931865892719,
    "lat": 37.6489648175447,
    "cluster": ""
  },
  {
    "apt_name": "우물골2단지두산위브(223~244동)BL2-7",
    "address": "서울특별시 은평구 진관동 84",
    "lng": 126.928783214998,
    "lat": 37.6364404889972,
    "cluster": 22
  },
  {
    "apt_name": "우물골2단지두산위브(204~208동)BL2-5",
    "address": "서울특별시 은평구 진관동 83",
    "lng": 126.927698804762,
    "lat": 37.6345080270596,
    "cluster": 13
  },
  {
    "apt_name": "은평뉴타운 제각말 푸르지오(5-1단지)",
    "address": "서울특별시 은평구 진관동 154",
    "lng": 126.935760587979,
    "lat": 37.6364004361044,
    "cluster": ""
  },
  {
    "apt_name": "구파발10단지어울림(1011~1019동)BL3-1",
    "address": "서울특별시 은평구 진관동 27",
    "lng": 126.917052851909,
    "lat": 37.6437016075042,
    "cluster": 24
  },
  {
    "apt_name": "상림마을7단지아이파크(719~729동)BL1-13",
    "address": "서울특별시 은평구 진관동 11",
    "lng": 126.929337256328,
    "lat": 37.6420380991311,
    "cluster": ""
  },
  {
    "apt_name": "박석고개1단지힐스테이트(101~111동)BL2-12",
    "address": "서울특별시 은평구 진관동 101",
    "lng": 126.920109717787,
    "lat": 37.6318935180295,
    "cluster": 19
  },
  {
    "apt_name": "상림마을6단지푸르지오(615~621동)BL1-6",
    "address": "서울특별시 은평구 진관동 1",
    "lng": 126.930330570768,
    "lat": 37.6492243049648,
    "cluster": ""
  },
  {
    "apt_name": "마고정3단지센트레빌(323~335동)BL2-2",
    "address": "서울특별시 은평구 진관동 105",
    "lng": 126.923974377572,
    "lat": 37.6334242331886,
    "cluster": 9
  },
  {
    "apt_name": "우물골2단지두산위브(245~255동)BL2-6",
    "address": "서울특별시 은평구 진관동 81",
    "lng": 126.924112226405,
    "lat": 37.6352331401596,
    "cluster": 19
  },
  {
    "apt_name": "상림마을7단지아이파크(702~705동)BL1-4",
    "address": "서울특별시 은평구 진관동 6",
    "lng": 126.927656652397,
    "lat": 37.6470178993725,
    "cluster": ""
  },
  {
    "apt_name": "마고정3단지센트레빌(301~309동)BL2-11",
    "address": "서울특별시 은평구 진관동 106",
    "lng": 126.925973863366,
    "lat": 37.6320493391686,
    "cluster": 22
  },
  {
    "apt_name": "우물골2단지두산위브(201~203동)BL2-4",
    "address": "서울특별시 은평구 진관동 82",
    "lng": 126.92455178598,
    "lat": 37.6345826403906,
    "cluster": 19
  },
  {
    "apt_name": "폭포동4단지힐스테이트(426~428동)BL3-11",
    "address": "서울특별시 은평구 진관동 135",
    "lng": 126.936495053805,
    "lat": 37.6276515409663,
    "cluster": ""
  },
  {
    "apt_name": "상림마을6단지푸르지오(601~605동)BL1-8",
    "address": "서울특별시 은평구 진관동 3",
    "lng": 126.930006027686,
    "lat": 37.6468174062531,
    "cluster": ""
  },
  {
    "apt_name": "상림마을7단지아이파크(730~742동)BL1-14",
    "address": "서울특별시 은평구 진관동 10",
    "lng": 126.931075917531,
    "lat": 37.6424032153905,
    "cluster": ""
  },
  {
    "apt_name": "은평뉴타운 제각말 푸르지오(5-2단지)",
    "address": "서울특별시 은평구 진관동 155",
    "lng": 126.936416651273,
    "lat": 37.6381686141123,
    "cluster": ""
  },
  {
    "apt_name": "폭포동4단지힐스테이트(423~425동)BL3-10",
    "address": "서울특별시 은평구 진관동 132",
    "lng": 126.934086316438,
    "lat": 37.6274025388161,
    "cluster": 13
  },
  {
    "apt_name": "에스케이뷰",
    "address": "서울특별시 서대문구 합동 118",
    "lng": 126.965906287936,
    "lat": 37.5619316835111,
    "cluster": 2
  },
  {
    "apt_name": "사랑채",
    "address": "서울특별시 서대문구 합동 31-9",
    "lng": 126.964779711439,
    "lat": 37.5611069408602,
    "cluster": 20
  },
  {
    "apt_name": "DMC파크뷰자이1단지",
    "address": "서울특별시 서대문구 남가좌동 385",
    "lng": 126.917837154419,
    "lat": 37.5722579341307,
    "cluster": 19
  },
  {
    "apt_name": "남가좌동현대",
    "address": "서울특별시 서대문구 남가좌동 376",
    "lng": 126.920125943504,
    "lat": 37.5749918612212,
    "cluster": 13
  },
  {
    "apt_name": "래미안남가좌2차",
    "address": "서울특별시 서대문구 남가좌동 379",
    "lng": 126.912658059687,
    "lat": 37.5719886027308,
    "cluster": 7
  },
  {
    "apt_name": "DMC파크뷰자이5단지",
    "address": "서울특별시 서대문구 남가좌동 385",
    "lng": 126.917837154419,
    "lat": 37.5722579341307,
    "cluster": 18
  },
  {
    "apt_name": "DMC파크뷰자이3단지",
    "address": "서울특별시 서대문구 남가좌동 385",
    "lng": 126.917837154419,
    "lat": 37.5722579341307,
    "cluster": 18
  },
  {
    "apt_name": "DMC센트레빌",
    "address": "서울특별시 서대문구 남가좌동 381",
    "lng": 126.915714237952,
    "lat": 37.5761635101917,
    "cluster": 22
  },
  {
    "apt_name": "DMC래미안클라시스",
    "address": "서울특별시 서대문구 남가좌동 377",
    "lng": 126.916529880454,
    "lat": 37.5777836266316,
    "cluster": 13
  },
  {
    "apt_name": "DMC파크뷰자이2단지",
    "address": "서울특별시 서대문구 남가좌동 385",
    "lng": 126.917837154419,
    "lat": 37.5722579341307,
    "cluster": 18
  },
  {
    "apt_name": "명지플러스빌아파트(B)",
    "address": "서울특별시 서대문구 남가좌동 335-18",
    "lng": 126.924108605447,
    "lat": 37.5755915777187,
    "cluster": ""
  },
  {
    "apt_name": "창덕에버빌",
    "address": "서울특별시 서대문구 남가좌동 105-1",
    "lng": 126.917215021685,
    "lat": 37.5694897328344,
    "cluster": 26
  },
  {
    "apt_name": "백련미라보",
    "address": "서울특별시 서대문구 남가좌동 345-4",
    "lng": 126.923106765871,
    "lat": 37.5770090042557,
    "cluster": ""
  },
  {
    "apt_name": "쌍용스윗닷홈",
    "address": "서울특별시 서대문구 남가좌동 380",
    "lng": 126.919067331865,
    "lat": 37.5753530696617,
    "cluster": 13
  },
  {
    "apt_name": "엠화일비동",
    "address": "서울특별시 서대문구 남가좌동 132-29",
    "lng": 126.920440868104,
    "lat": 37.5718050755201,
    "cluster": 24
  },
  {
    "apt_name": "DMC파크뷰자이4단지",
    "address": "서울특별시 서대문구 남가좌동 385",
    "lng": 126.917837154419,
    "lat": 37.5722579341307,
    "cluster": 18
  },
  {
    "apt_name": "신공덕래미안2차",
    "address": "서울특별시 마포구 신공덕동 159",
    "lng": 126.957897447418,
    "lat": 37.5464420286085,
    "cluster": 7
  },
  {
    "apt_name": "브라운스톤공덕아파트",
    "address": "서울특별시 마포구 신공덕동 170",
    "lng": 126.955297363222,
    "lat": 37.5415364830791,
    "cluster": 18
  },
  {
    "apt_name": "신공덕래미안3차",
    "address": "서울특별시 마포구 신공덕동 161",
    "lng": 126.956827021445,
    "lat": 37.5455442470644,
    "cluster": 0
  },
  {
    "apt_name": "공덕아이파크",
    "address": "서울특별시 마포구 신공덕동 174",
    "lng": 126.95605352897,
    "lat": 37.5446740470437,
    "cluster": 18
  },
  {
    "apt_name": "신공덕1차삼성래미안1아파트",
    "address": "서울특별시 마포구 신공덕동 155",
    "lng": 126.955640369823,
    "lat": 37.5433755525349,
    "cluster": 2
  },
  {
    "apt_name": "펜트라우스",
    "address": "서울특별시 마포구 신공덕동 172",
    "lng": 126.954104279714,
    "lat": 37.5433912735909,
    "cluster": 20
  },
  {
    "apt_name": "kcc웰츠",
    "address": "서울특별시 마포구 신공덕동 171",
    "lng": 126.952463879815,
    "lat": 37.5428410149659,
    "cluster": 18
  },
  {
    "apt_name": "뉴마인",
    "address": "서울특별시 마포구 신공덕동 5-5",
    "lng": 126.957278598979,
    "lat": 37.547592922491,
    "cluster": 7
  },
  {
    "apt_name": "대우메트로디오빌",
    "address": "서울특별시 마포구 신공덕동 167",
    "lng": 126.952869805451,
    "lat": 37.5434945824726,
    "cluster": 2
  },
  {
    "apt_name": "신공덕e편한세상",
    "address": "서울특별시 마포구 신공덕동 168",
    "lng": 126.957075561069,
    "lat": 37.5419152924015,
    "cluster": 8
  },
  {
    "apt_name": "대우월드마크마포",
    "address": "서울특별시 마포구 신공덕동 173",
    "lng": 126.953369360825,
    "lat": 37.5424449362081,
    "cluster": 18
  },
  {
    "apt_name": "공덕프로포즈Ⅱ",
    "address": "서울특별시 마포구 신공덕동 15-80",
    "lng": 126.955026081494,
    "lat": 37.5450197339874,
    "cluster": 18
  },
  {
    "apt_name": "마포쌍용황금아파트",
    "address": "서울특별시 마포구 마포동 253",
    "lng": 126.94576497541,
    "lat": 37.5371402048809,
    "cluster": 8
  },
  {
    "apt_name": "보성",
    "address": "서울특별시 마포구 마포동 442",
    "lng": 126.94640660394,
    "lat": 37.5360622706024,
    "cluster": 8
  },
  {
    "apt_name": "강변한신코아",
    "address": "서울특별시 마포구 마포동 350",
    "lng": 126.943931946377,
    "lat": 37.5363258355614,
    "cluster": 1
  },
  {
    "apt_name": "비체힐리버뷰",
    "address": "서울특별시 마포구 마포동 449",
    "lng": 126.945414471447,
    "lat": 37.5363348193301,
    "cluster": 19
  },
  {
    "apt_name": "래미안밤섬리베뉴Ⅱ",
    "address": "서울특별시 마포구 상수동 398",
    "lng": 126.927260242735,
    "lat": 37.5466753554924,
    "cluster": 18
  },
  {
    "apt_name": "밤섬리버베르빌",
    "address": "서울특별시 마포구 상수동 395",
    "lng": 126.922513077415,
    "lat": 37.5445858024348,
    "cluster": 8
  },
  {
    "apt_name": "래미안밤섬리베뉴Ⅰ",
    "address": "서울특별시 마포구 상수동 402",
    "lng": 126.925487415214,
    "lat": 37.5466237941711,
    "cluster": 18
  },
  {
    "apt_name": "상수두산위브",
    "address": "서울특별시 마포구 상수동 396",
    "lng": 126.924361847447,
    "lat": 37.5469254537329,
    "cluster": 2
  },
  {
    "apt_name": "상수동월드메르디앙",
    "address": "서울특별시 마포구 상수동 363",
    "lng": 126.923242913131,
    "lat": 37.5447218794604,
    "cluster": 8
  },
  {
    "apt_name": "메세나폴리스",
    "address": "서울특별시 마포구 서교동 490",
    "lng": 126.913768796333,
    "lat": 37.5507467154903,
    "cluster": 18
  },
  {
    "apt_name": "대우미래사랑",
    "address": "서울특별시 마포구 서교동 487",
    "lng": 126.916789419776,
    "lat": 37.5573711251344,
    "cluster": 7
  },
  {
    "apt_name": "광남벨라스(1차)",
    "address": "서울특별시 마포구 서교동 465-1",
    "lng": 126.916207586959,
    "lat": 37.5547376391352,
    "cluster": 9
  },
  {
    "apt_name": "대아",
    "address": "서울특별시 마포구 서교동 329-2",
    "lng": 126.929049712386,
    "lat": 37.5557945451416,
    "cluster": 2
  },
  {
    "apt_name": "함성참좋은",
    "address": "서울특별시 마포구 서교동 247-72",
    "lng": 126.911574774692,
    "lat": 37.5577965699277,
    "cluster": 16
  },
  {
    "apt_name": "청기와",
    "address": "서울특별시 마포구 서교동 478-4",
    "lng": 126.914472325468,
    "lat": 37.5553242056654,
    "cluster": 1
  },
  {
    "apt_name": "광남벨라스2차",
    "address": "서울특별시 마포구 서교동 458-22",
    "lng": 126.915104573906,
    "lat": 37.5561662835695,
    "cluster": 9
  },
  {
    "apt_name": "에덴지우",
    "address": "서울특별시 마포구 서교동 458-6",
    "lng": 126.914820634989,
    "lat": 37.5568484943695,
    "cluster": 24
  },
  {
    "apt_name": "서교푸르지오",
    "address": "서울특별시 마포구 서교동 486",
    "lng": 126.923694441522,
    "lat": 37.5537936941359,
    "cluster": 8
  },
  {
    "apt_name": "신세계드림빌",
    "address": "서울특별시 마포구 서교동 470-20",
    "lng": 126.912065875526,
    "lat": 37.5576778248969,
    "cluster": 16
  },
  {
    "apt_name": "기정MAY(247-112)",
    "address": "서울특별시 마포구 서교동 247-112",
    "lng": 126.915971002043,
    "lat": 37.5580117851156,
    "cluster": 9
  },
  {
    "apt_name": "엘림",
    "address": "서울특별시 마포구 서교동 453-14",
    "lng": 126.915828768467,
    "lat": 37.5577837315581,
    "cluster": 9
  },
  {
    "apt_name": "상암월드컵파크4단지",
    "address": "서울특별시 마포구 상암동 1655",
    "lng": 126.888688773185,
    "lat": 37.5776864156328,
    "cluster": 0
  },
  {
    "apt_name": "상암월드컵파크3단지",
    "address": "서울특별시 마포구 상암동 1643",
    "lng": 126.889779870573,
    "lat": 37.5726880929371,
    "cluster": 0
  },
  {
    "apt_name": "상암월드컵파크10단지",
    "address": "서울특별시 마포구 상암동 1736",
    "lng": 126.882105659288,
    "lat": 37.5854508203348,
    "cluster": ""
  },
  {
    "apt_name": "상암월드컵파크9단지",
    "address": "서울특별시 마포구 상암동 1752",
    "lng": 126.879166069383,
    "lat": 37.5835469334073,
    "cluster": ""
  },
  {
    "apt_name": "상암월드컵파크5단지",
    "address": "서울특별시 마포구 상암동 1658",
    "lng": 126.885970559624,
    "lat": 37.5802112884678,
    "cluster": 0
  },
  {
    "apt_name": "DMC상암센트럴파크1단지",
    "address": "서울특별시 마포구 상암동 1630",
    "lng": 126.896137421556,
    "lat": 37.5742846533291,
    "cluster": 2
  },
  {
    "apt_name": "상암월드컵파크12단지",
    "address": "서울특별시 마포구 상암동 1743",
    "lng": 126.880246741457,
    "lat": 37.58635705939,
    "cluster": ""
  },
  {
    "apt_name": "DMC상암센트럴파크2단지",
    "address": "서울특별시 마포구 상암동 1618",
    "lng": 126.897036147318,
    "lat": 37.5749303723564,
    "cluster": 18
  },
  {
    "apt_name": "상암월드컵파크2단지",
    "address": "서울특별시 마포구 상암동 1637",
    "lng": 126.891577074081,
    "lat": 37.5748398903005,
    "cluster": 0
  },
  {
    "apt_name": "상암월드컵파크7단지",
    "address": "서울특별시 마포구 상암동 1660",
    "lng": 126.881479978349,
    "lat": 37.5817590063066,
    "cluster": ""
  },
  {
    "apt_name": "상암월드컵파크6단지",
    "address": "서울특별시 마포구 상암동 1689",
    "lng": 126.884254666215,
    "lat": 37.5798183170436,
    "cluster": ""
  },
  {
    "apt_name": "상암월드컵파크11단지",
    "address": "서울특별시 마포구 상암동 1741",
    "lng": 126.881417089513,
    "lat": 37.5875039427788,
    "cluster": ""
  },
  {
    "apt_name": "탑건진선미",
    "address": "서울특별시 양천구 신월동 1025",
    "lng": 126.827976695407,
    "lat": 37.5384001294387,
    "cluster": ""
  },
  {
    "apt_name": "신월",
    "address": "서울특별시 양천구 신월동 230-2",
    "lng": 126.835769562582,
    "lat": 37.529187867492,
    "cluster": ""
  },
  {
    "apt_name": "수명산SKVIEW",
    "address": "서울특별시 양천구 신월동 1053",
    "lng": 126.829338214187,
    "lat": 37.5440526286777,
    "cluster": 22
  },
  {
    "apt_name": "신성미소지움3차아파트",
    "address": "서울특별시 양천구 신월동 1045",
    "lng": 126.841776956537,
    "lat": 37.5229198740895,
    "cluster": ""
  },
  {
    "apt_name": "삼정그린뷰",
    "address": "서울특별시 양천구 신월동 1041",
    "lng": 126.838546157349,
    "lat": 37.5228033270409,
    "cluster": ""
  },
  {
    "apt_name": "신월시영",
    "address": "서울특별시 양천구 신월동 987-1",
    "lng": 126.832775211306,
    "lat": 37.517094837206,
    "cluster": ""
  },
  {
    "apt_name": "대주파크빌",
    "address": "서울특별시 양천구 신월동 1028",
    "lng": 126.842497621202,
    "lat": 37.5142784223721,
    "cluster": ""
  },
  {
    "apt_name": "삼혜아트빌",
    "address": "서울특별시 양천구 신월동 1007-4",
    "lng": 126.83931270024,
    "lat": 37.5161496601018,
    "cluster": ""
  },
  {
    "apt_name": "동원데자뷰",
    "address": "서울특별시 양천구 신월동 1060",
    "lng": 126.827959271934,
    "lat": 37.543274868093,
    "cluster": 22
  },
  {
    "apt_name": "양천벽산블루밍2단지",
    "address": "서울특별시 양천구 신월동 1027",
    "lng": 126.838828820465,
    "lat": 37.525027565104,
    "cluster": ""
  },
  {
    "apt_name": "신월2차보람쉬움",
    "address": "서울특별시 양천구 신월동 1039",
    "lng": 126.837135957763,
    "lat": 37.5246233061067,
    "cluster": ""
  },
  {
    "apt_name": "신안파크",
    "address": "서울특별시 양천구 신월동 350-2",
    "lng": 126.829579444411,
    "lat": 37.5233765603266,
    "cluster": ""
  },
  {
    "apt_name": "대성유니드",
    "address": "서울특별시 양천구 신월동 1033",
    "lng": 126.840618068272,
    "lat": 37.5205479601152,
    "cluster": ""
  },
  {
    "apt_name": "연흥",
    "address": "서울특별시 양천구 신월동 538-4",
    "lng": 126.84162472502,
    "lat": 37.5192647554298,
    "cluster": ""
  },
  {
    "apt_name": "상아아름",
    "address": "서울특별시 양천구 신월동 447-3",
    "lng": 126.841653455184,
    "lat": 37.525314210271,
    "cluster": 21
  },
  {
    "apt_name": "신정두산위브",
    "address": "서울특별시 양천구 신월동 1055",
    "lng": 126.845676287504,
    "lat": 37.5189928802422,
    "cluster": 27
  },
  {
    "apt_name": "수명",
    "address": "서울특별시 양천구 신월동 12-4",
    "lng": 126.827052221012,
    "lat": 37.5409243694086,
    "cluster": ""
  },
  {
    "apt_name": "정은스카이빌(1044)",
    "address": "서울특별시 양천구 신월동 1044",
    "lng": 126.839688910487,
    "lat": 37.5204884978885,
    "cluster": ""
  },
  {
    "apt_name": "신도신월1차",
    "address": "서울특별시 양천구 신월동 1029",
    "lng": 126.846439281936,
    "lat": 37.5180484528284,
    "cluster": 17
  },
  {
    "apt_name": "유림웰스빌",
    "address": "서울특별시 양천구 신월동 548-1",
    "lng": 126.83991220665,
    "lat": 37.5168366778138,
    "cluster": ""
  },
  {
    "apt_name": "코아루1단지",
    "address": "서울특별시 양천구 신월동 197-2",
    "lng": 126.829591563073,
    "lat": 37.5317252519133,
    "cluster": ""
  },
  {
    "apt_name": "대림(주상복합)",
    "address": "서울특별시 양천구 신월동 507-1",
    "lng": 126.846197343731,
    "lat": 37.5227789399608,
    "cluster": 12
  },
  {
    "apt_name": "롯데캐슬",
    "address": "서울특별시 양천구 신월동 1063",
    "lng": 126.847302166894,
    "lat": 37.5185331395679,
    "cluster": 19
  },
  {
    "apt_name": "신안약수",
    "address": "서울특별시 양천구 신월동 591-1",
    "lng": 126.847584380574,
    "lat": 37.5167049193055,
    "cluster": 12
  },
  {
    "apt_name": "보람쉬움1",
    "address": "서울특별시 양천구 신월동 416-1",
    "lng": 126.837810066593,
    "lat": 37.5247337955297,
    "cluster": ""
  },
  {
    "apt_name": "신월성원",
    "address": "서울특별시 양천구 신월동 222-7",
    "lng": 126.833956714644,
    "lat": 37.5282163063301,
    "cluster": ""
  },
  {
    "apt_name": "신월동금용",
    "address": "서울특별시 양천구 신월동 533-1",
    "lng": 126.84230851971,
    "lat": 37.5207194373633,
    "cluster": 23
  },
  {
    "apt_name": "행복한세상",
    "address": "서울특별시 양천구 신월동 29-7",
    "lng": 126.825859527819,
    "lat": 37.5401311792193,
    "cluster": ""
  },
  {
    "apt_name": "삼익플라주행복한마을",
    "address": "서울특별시 양천구 신월동 1068",
    "lng": 126.836486382743,
    "lat": 37.5241057743488,
    "cluster": ""
  },
  {
    "apt_name": "동방",
    "address": "서울특별시 양천구 신월동 607-1",
    "lng": 126.846468395387,
    "lat": 37.5214506752172,
    "cluster": 12
  },
  {
    "apt_name": "세아쎄닛빌",
    "address": "서울특별시 양천구 신월동 547-5",
    "lng": 126.839472137639,
    "lat": 37.5182338958521,
    "cluster": ""
  },
  {
    "apt_name": "양천벽산블루밍1단지",
    "address": "서울특별시 양천구 신월동 1026",
    "lng": 126.839445890783,
    "lat": 37.5243595021116,
    "cluster": ""
  },
  {
    "apt_name": "수명산태승훼미리",
    "address": "서울특별시 양천구 신월동 18-17",
    "lng": 126.830994543755,
    "lat": 37.541316876194,
    "cluster": 23
  },
  {
    "apt_name": "길훈",
    "address": "서울특별시 양천구 신월동 341-1",
    "lng": 126.830908959617,
    "lat": 37.5236449874919,
    "cluster": ""
  },
  {
    "apt_name": "신월6차보람",
    "address": "서울특별시 양천구 신월동 125",
    "lng": 126.834986876047,
    "lat": 37.5302793298313,
    "cluster": ""
  },
  {
    "apt_name": "벽산블루밍2단지",
    "address": "서울특별시 양천구 신월동 1023",
    "lng": 126.841496388784,
    "lat": 37.5136240359991,
    "cluster": ""
  },
  {
    "apt_name": "흥양훼미리",
    "address": "서울특별시 양천구 신월동 87-21",
    "lng": 126.833966124008,
    "lat": 37.5375471668207,
    "cluster": 21
  },
  {
    "apt_name": "장수마을",
    "address": "서울특별시 양천구 신월동 1037",
    "lng": 126.844518099421,
    "lat": 37.5215411974037,
    "cluster": 27
  },
  {
    "apt_name": "수명산롯데캐슬",
    "address": "서울특별시 양천구 신월동 1036",
    "lng": 126.828496648213,
    "lat": 37.5445574100504,
    "cluster": 22
  },
  {
    "apt_name": "삼익2차플라주",
    "address": "서울특별시 양천구 신월동 1046",
    "lng": 126.84093924334,
    "lat": 37.5191502178929,
    "cluster": ""
  },
  {
    "apt_name": "벽산블루밍1단지",
    "address": "서울특별시 양천구 신월동 1022",
    "lng": 126.842178975353,
    "lat": 37.5136395462496,
    "cluster": ""
  },
  {
    "apt_name": "롯데캐슬(1057-0)",
    "address": "서울특별시 양천구 신월동 1057",
    "lng": 126.840092912064,
    "lat": 37.523328012312,
    "cluster": ""
  },
  {
    "apt_name": "대방샤인힐",
    "address": "서울특별시 양천구 신월동 1017",
    "lng": 126.838505157117,
    "lat": 37.520464450295,
    "cluster": ""
  },
  {
    "apt_name": "길훈엔트런스빌",
    "address": "서울특별시 양천구 신월동 1043",
    "lng": 126.83555287572,
    "lat": 37.5315747668287,
    "cluster": 23
  },
  {
    "apt_name": "신월동방원",
    "address": "서울특별시 양천구 신월동 1032",
    "lng": 126.835209352477,
    "lat": 37.5274269820233,
    "cluster": ""
  },
  {
    "apt_name": "장수마을2단지동원데쟈뷰",
    "address": "서울특별시 양천구 신월동 1049",
    "lng": 126.845856564242,
    "lat": 37.5223085331443,
    "cluster": 27
  },
  {
    "apt_name": "오진참사랑",
    "address": "서울특별시 양천구 신월동 506-3",
    "lng": 126.848391608716,
    "lat": 37.5230580241532,
    "cluster": 12
  },
  {
    "apt_name": "아름다운세상",
    "address": "서울특별시 양천구 신월동 1038",
    "lng": 126.827401293211,
    "lat": 37.5422494383251,
    "cluster": ""
  },
  {
    "apt_name": "태헌(신월프라자)",
    "address": "서울특별시 양천구 신월동 128",
    "lng": 126.833604656157,
    "lat": 37.5311154109633,
    "cluster": ""
  },
  {
    "apt_name": "예건미예뜰1동",
    "address": "서울특별시 양천구 신월동 494-4",
    "lng": 126.847058293914,
    "lat": 37.523793955217,
    "cluster": 12
  },
  {
    "apt_name": "강국",
    "address": "서울특별시 양천구 신월동 24-5",
    "lng": 126.831994767009,
    "lat": 37.5399223858607,
    "cluster": 21
  },
  {
    "apt_name": "서울가든",
    "address": "서울특별시 양천구 신월동 475",
    "lng": 126.848649985014,
    "lat": 37.5252977950342,
    "cluster": 12
  },
  {
    "apt_name": "코아루2단지",
    "address": "서울특별시 양천구 신월동 1058",
    "lng": 126.828608714693,
    "lat": 37.5315874181946,
    "cluster": ""
  },
  {
    "apt_name": "대림타운",
    "address": "서울특별시 양천구 신월동 558-9",
    "lng": 126.840412663794,
    "lat": 37.5164475813012,
    "cluster": ""
  },
  {
    "apt_name": "신월대림",
    "address": "서울특별시 양천구 신월동 491-1",
    "lng": 126.844873559047,
    "lat": 37.5237120880527,
    "cluster": 22
  },
  {
    "apt_name": "디아이빌102동",
    "address": "서울특별시 양천구 신월동 1050",
    "lng": 126.828522937031,
    "lat": 37.522996520389,
    "cluster": ""
  },
  {
    "apt_name": "태진",
    "address": "서울특별시 양천구 신월동 467-3",
    "lng": 126.84672601378,
    "lat": 37.5261866744531,
    "cluster": 21
  },
  {
    "apt_name": "신도브래뉴2차",
    "address": "서울특별시 양천구 신월동 1031",
    "lng": 126.827927119403,
    "lat": 37.5421004597471,
    "cluster": ""
  },
  {
    "apt_name": "원능한빛",
    "address": "서울특별시 양천구 신월동 1016",
    "lng": 126.84007803561,
    "lat": 37.5197507442592,
    "cluster": ""
  },
  {
    "apt_name": "우정",
    "address": "서울특별시 양천구 신월동 350-3",
    "lng": 126.828976586499,
    "lat": 37.522541091151,
    "cluster": ""
  },
  {
    "apt_name": "삼도(101)",
    "address": "서울특별시 양천구 신월동 558-3",
    "lng": 126.840237486616,
    "lat": 37.5161649702334,
    "cluster": ""
  },
  {
    "apt_name": "태형",
    "address": "서울특별시 양천구 신월동 134-17",
    "lng": 126.832521187293,
    "lat": 37.5327676653749,
    "cluster": ""
  },
  {
    "apt_name": "동도센트리움",
    "address": "서울특별시 양천구 신월동 1052",
    "lng": 126.846341974714,
    "lat": 37.5237432000588,
    "cluster": 27
  },
  {
    "apt_name": "새롬",
    "address": "서울특별시 양천구 신월동 458-1",
    "lng": 126.845102148411,
    "lat": 37.5264656682433,
    "cluster": 21
  },
  {
    "apt_name": "방주기픈샘2",
    "address": "서울특별시 양천구 신월동 1047",
    "lng": 126.842730888487,
    "lat": 37.525473505339,
    "cluster": 23
  },
  {
    "apt_name": "온누리",
    "address": "서울특별시 양천구 신월동 29-2",
    "lng": 126.825848992467,
    "lat": 37.5404284032143,
    "cluster": ""
  },
  {
    "apt_name": "삼익플라주(81-10)",
    "address": "서울특별시 양천구 신월동 81-10",
    "lng": 126.830273459943,
    "lat": 37.5365600081125,
    "cluster": ""
  },
  {
    "apt_name": "명산그린빌",
    "address": "서울특별시 양천구 신월동 547-1",
    "lng": 126.839163955136,
    "lat": 37.5184688184218,
    "cluster": ""
  },
  {
    "apt_name": "방주기픈샘",
    "address": "서울특별시 양천구 신월동 1030",
    "lng": 126.842857208829,
    "lat": 37.5250628168519,
    "cluster": 21
  },
  {
    "apt_name": "오투힐",
    "address": "서울특별시 양천구 신월동 541-1",
    "lng": 126.839570318227,
    "lat": 37.5190816021613,
    "cluster": ""
  },
  {
    "apt_name": "롯데캐슬(1057-1)",
    "address": "서울특별시 양천구 신월동 1057-1",
    "lng": 126.840964033697,
    "lat": 37.5236188605496,
    "cluster": ""
  },
  {
    "apt_name": "두원빌드피아(510-3)",
    "address": "서울특별시 양천구 신월동 510-3",
    "lng": 126.844450434208,
    "lat": 37.5221493747038,
    "cluster": 21
  },
  {
    "apt_name": "탑건위너빌",
    "address": "서울특별시 양천구 신월동 418-4",
    "lng": 126.836789630304,
    "lat": 37.5233984570842,
    "cluster": ""
  },
  {
    "apt_name": "청솔",
    "address": "서울특별시 양천구 신월동 446-2",
    "lng": 126.842219504506,
    "lat": 37.5242597149404,
    "cluster": 13
  },
  {
    "apt_name": "금강",
    "address": "서울특별시 양천구 신월동 207-24",
    "lng": 126.833511114007,
    "lat": 37.5269317526961,
    "cluster": ""
  },
  {
    "apt_name": "올림푸스(150-1)",
    "address": "서울특별시 양천구 신월동 150-1",
    "lng": 126.825008483055,
    "lat": 37.5351625319504,
    "cluster": ""
  },
  {
    "apt_name": "우당",
    "address": "서울특별시 양천구 신월동 506-1",
    "lng": 126.847577354117,
    "lat": 37.5229954377086,
    "cluster": 12
  },
  {
    "apt_name": "동도하이츠",
    "address": "서울특별시 양천구 신월동 218-12",
    "lng": 126.836076911595,
    "lat": 37.5269290347986,
    "cluster": ""
  },
  {
    "apt_name": "신월동로마파빌리온",
    "address": "서울특별시 양천구 신월동 538-1",
    "lng": 126.841359857591,
    "lat": 37.5194518985443,
    "cluster": ""
  },
  {
    "apt_name": "에이원",
    "address": "서울특별시 양천구 신월동 413-3",
    "lng": 126.839884723168,
    "lat": 37.5255167133393,
    "cluster": 23
  },
  {
    "apt_name": "성우",
    "address": "서울특별시 양천구 신월동 429-1",
    "lng": 126.841072182197,
    "lat": 37.5240450897729,
    "cluster": 23
  },
  {
    "apt_name": "삼구",
    "address": "서울특별시 양천구 신월동 604-4",
    "lng": 126.84650911165,
    "lat": 37.5196320553152,
    "cluster": 12
  },
  {
    "apt_name": "탑건위너스빌",
    "address": "서울특별시 양천구 신월동 145-9",
    "lng": 126.82966335566,
    "lat": 37.5348811079703,
    "cluster": ""
  },
  {
    "apt_name": "청정",
    "address": "서울특별시 양천구 신월동 602-3",
    "lng": 126.845424272503,
    "lat": 37.5201933164242,
    "cluster": 21
  },
  {
    "apt_name": "NEWSK아파트",
    "address": "서울특별시 양천구 신월동 45-1",
    "lng": 126.826597867912,
    "lat": 37.5373306089185,
    "cluster": ""
  },
  {
    "apt_name": "정은스카이빌2차",
    "address": "서울특별시 양천구 신월동 1051",
    "lng": 126.839189563405,
    "lat": 37.5203987099633,
    "cluster": ""
  },
  {
    "apt_name": "우진(72-5)",
    "address": "서울특별시 양천구 신월동 72-5",
    "lng": 126.832231213721,
    "lat": 37.5383225475481,
    "cluster": 23
  },
  {
    "apt_name": "해주",
    "address": "서울특별시 양천구 신월동 217-8",
    "lng": 126.834656403746,
    "lat": 37.5271035607392,
    "cluster": ""
  },
  {
    "apt_name": "길성",
    "address": "서울특별시 양천구 신월동 538-6",
    "lng": 126.841636879658,
    "lat": 37.5190265467191,
    "cluster": ""
  },
  {
    "apt_name": "신월휘버스",
    "address": "서울특별시 양천구 신월동 1024",
    "lng": 126.846153800756,
    "lat": 37.5199644232693,
    "cluster": 17
  },
  {
    "apt_name": "레미앙",
    "address": "서울특별시 양천구 신월동 1002-1",
    "lng": 126.837263805132,
    "lat": 37.5161268526878,
    "cluster": ""
  },
  {
    "apt_name": "상진지오벨리",
    "address": "서울특별시 양천구 신월동 1059",
    "lng": 126.831530164764,
    "lat": 37.539825947762,
    "cluster": 23
  },
  {
    "apt_name": "세제뉴타운",
    "address": "서울특별시 양천구 신월동 529-2",
    "lng": 126.841295520898,
    "lat": 37.5198125734033,
    "cluster": ""
  },
  {
    "apt_name": "나이아가라",
    "address": "서울특별시 양천구 신월동 507-3",
    "lng": 126.847212926784,
    "lat": 37.5229110835718,
    "cluster": 12
  },
  {
    "apt_name": "궁전",
    "address": "서울특별시 양천구 신월동 127-1",
    "lng": 126.833889314271,
    "lat": 37.5307042347016,
    "cluster": ""
  },
  {
    "apt_name": "성호그린",
    "address": "서울특별시 양천구 신월동 241-9",
    "lng": 126.838191398102,
    "lat": 37.5273614578992,
    "cluster": 23
  },
  {
    "apt_name": "삼종레이빌102동",
    "address": "서울특별시 양천구 신월동 519-25",
    "lng": 126.840757911219,
    "lat": 37.5210147776981,
    "cluster": ""
  },
  {
    "apt_name": "양천벽산블루밍3단지",
    "address": "서울특별시 양천구 신월동 1048",
    "lng": 126.83896533503,
    "lat": 37.5238310411763,
    "cluster": ""
  },
  {
    "apt_name": "삼백",
    "address": "서울특별시 양천구 신월동 440-10",
    "lng": 126.83878164217,
    "lat": 37.5218226379733,
    "cluster": ""
  },
  {
    "apt_name": "금하뜨라네",
    "address": "서울특별시 양천구 신월동 142-14",
    "lng": 126.823828482294,
    "lat": 37.5341201228579,
    "cluster": ""
  },
  {
    "apt_name": "삼익4차플라주",
    "address": "서울특별시 양천구 신월동 1056",
    "lng": 126.844672292462,
    "lat": 37.5208280769854,
    "cluster": 23
  },
  {
    "apt_name": "엘림(986-13)",
    "address": "서울특별시 양천구 신월동 986-13",
    "lng": 126.836202245855,
    "lat": 37.5187597364272,
    "cluster": ""
  },
  {
    "apt_name": "신월2차미소지움",
    "address": "서울특별시 양천구 신월동 1040",
    "lng": 126.845268947561,
    "lat": 37.5216230033302,
    "cluster": 27
  },
  {
    "apt_name": "삼익플라주",
    "address": "서울특별시 양천구 신월동 1042",
    "lng": 126.842760718489,
    "lat": 37.5195611712599,
    "cluster": 22
  },
  {
    "apt_name": "방주아크빌",
    "address": "서울특별시 양천구 신월동 426-3",
    "lng": 126.840621660171,
    "lat": 37.5247623105594,
    "cluster": 23
  },
  {
    "apt_name": "수명산그린시아",
    "address": "서울특별시 양천구 신월동 1070",
    "lng": 126.828570269002,
    "lat": 37.5434895636155,
    "cluster": 23
  },
  {
    "apt_name": "덕수펠리체(45)",
    "address": "서울특별시 양천구 신월동 45-3",
    "lng": 126.826986046114,
    "lat": 37.5371945867659,
    "cluster": ""
  },
  {
    "apt_name": "동양브로미(101동)A",
    "address": "서울특별시 양천구 신월동 492-1",
    "lng": 126.84558768554,
    "lat": 37.5240027859809,
    "cluster": 21
  },
  {
    "apt_name": "미리내아파트",
    "address": "서울특별시 양천구 신월동 54-10",
    "lng": 126.827499455275,
    "lat": 37.5389826500233,
    "cluster": ""
  },
  {
    "apt_name": "근상아트프리즘",
    "address": "서울특별시 양천구 신월동 45-2",
    "lng": 126.826835236474,
    "lat": 37.5374334008489,
    "cluster": ""
  },
  {
    "apt_name": "대외",
    "address": "서울특별시 양천구 신월동 470-1",
    "lng": 126.847855592883,
    "lat": 37.5264165388292,
    "cluster": 12
  },
  {
    "apt_name": "그린아파트빌",
    "address": "서울특별시 양천구 신월동 438-4",
    "lng": 126.838065559298,
    "lat": 37.5215691976256,
    "cluster": ""
  },
  {
    "apt_name": "해태",
    "address": "서울특별시 양천구 신월동 514-3",
    "lng": 126.843057885909,
    "lat": 37.5217737068159,
    "cluster": 23
  },
  {
    "apt_name": "제일캐슬",
    "address": "서울특별시 양천구 신월동 494-8",
    "lng": 126.847002429731,
    "lat": 37.5235626858348,
    "cluster": 24
  },
  {
    "apt_name": "경희",
    "address": "서울특별시 양천구 신월동 446-5",
    "lng": 126.842581877049,
    "lat": 37.5239225932032,
    "cluster": 23
  },
  {
    "apt_name": "신월보성",
    "address": "서울특별시 양천구 신월동 465-5",
    "lng": 126.844502341232,
    "lat": 37.5258636419076,
    "cluster": 12
  },
  {
    "apt_name": "누리애",
    "address": "서울특별시 양천구 신월동 410-10",
    "lng": 126.836702102455,
    "lat": 37.5248894935472,
    "cluster": ""
  },
  {
    "apt_name": "주함헤븐105동",
    "address": "서울특별시 양천구 신월동 203-18",
    "lng": 126.829697860442,
    "lat": 37.5302552429753,
    "cluster": ""
  },
  {
    "apt_name": "동양브로미(102동)A",
    "address": "서울특별시 양천구 신월동 492-24",
    "lng": 126.845877803707,
    "lat": 37.5238617977716,
    "cluster": 21
  },
  {
    "apt_name": "두원빌드피아(444-7)",
    "address": "서울특별시 양천구 신월동 444-7",
    "lng": 126.842431146598,
    "lat": 37.5226540521462,
    "cluster": 23
  },
  {
    "apt_name": "삼종레이빌101동",
    "address": "서울특별시 양천구 신월동 519-12",
    "lng": 126.840559142864,
    "lat": 37.5211278555909,
    "cluster": ""
  },
  {
    "apt_name": "은성",
    "address": "서울특별시 양천구 신월동 110-1",
    "lng": 126.833504831477,
    "lat": 37.532405052171,
    "cluster": ""
  },
  {
    "apt_name": "대진아파트",
    "address": "서울특별시 양천구 신월동 411-3",
    "lng": 126.838091862083,
    "lat": 37.5255205761472,
    "cluster": ""
  },
  {
    "apt_name": "삼도(102)",
    "address": "서울특별시 양천구 신월동 558-4",
    "lng": 126.840314783395,
    "lat": 37.5159869465154,
    "cluster": ""
  },
  {
    "apt_name": "한우리(101동)",
    "address": "서울특별시 양천구 신월동 467-12",
    "lng": 126.846096751572,
    "lat": 37.5261503566772,
    "cluster": 21
  },
  {
    "apt_name": "우영아파트",
    "address": "서울특별시 양천구 신월동 136-8",
    "lng": 126.83158925027,
    "lat": 37.5320683352526,
    "cluster": ""
  },
  {
    "apt_name": "우진",
    "address": "서울특별시 양천구 신월동 91-10",
    "lng": 126.833853891094,
    "lat": 37.5357586149945,
    "cluster": 23
  },
  {
    "apt_name": "대신",
    "address": "서울특별시 양천구 신월동 481-9",
    "lng": 126.845507905731,
    "lat": 37.5244543537353,
    "cluster": 23
  },
  {
    "apt_name": "청송그린힐",
    "address": "서울특별시 양천구 신월동 981-4",
    "lng": 126.837041753178,
    "lat": 37.5165993927431,
    "cluster": ""
  },
  {
    "apt_name": "남영시티빌",
    "address": "서울특별시 양천구 신월동 488-3",
    "lng": 126.843667110159,
    "lat": 37.5235881412664,
    "cluster": 23
  },
  {
    "apt_name": "청성넥스빌",
    "address": "서울특별시 양천구 신월동 1035",
    "lng": 126.839854214416,
    "lat": 37.5189371963631,
    "cluster": ""
  },
  {
    "apt_name": "대운",
    "address": "서울특별시 양천구 신월동 109-2",
    "lng": 126.833030109342,
    "lat": 37.5336708276551,
    "cluster": ""
  },
  {
    "apt_name": "신성미소지움",
    "address": "서울특별시 양천구 신월동 1020",
    "lng": 126.846600015981,
    "lat": 37.5226370152574,
    "cluster": 9
  },
  {
    "apt_name": "삼동5",
    "address": "서울특별시 양천구 신월동 559-5",
    "lng": 126.841199833347,
    "lat": 37.51468267667,
    "cluster": ""
  },
  {
    "apt_name": "은하아파트",
    "address": "서울특별시 양천구 신월동 140-23",
    "lng": 126.830923813002,
    "lat": 37.533955159761,
    "cluster": ""
  },
  {
    "apt_name": "샤인팰리스",
    "address": "서울특별시 양천구 신월동 13-3",
    "lng": 126.828170685813,
    "lat": 37.5412356754635,
    "cluster": ""
  },
  {
    "apt_name": "나산",
    "address": "서울특별시 양천구 신월동 217-2",
    "lng": 126.83436044472,
    "lat": 37.5275685130252,
    "cluster": ""
  },
  {
    "apt_name": "덕현해밀(102동)",
    "address": "서울특별시 양천구 신월동 81-7",
    "lng": 126.829829020214,
    "lat": 37.5366130680832,
    "cluster": ""
  },
  {
    "apt_name": "정원",
    "address": "서울특별시 양천구 신월동 113-14",
    "lng": 126.835527832429,
    "lat": 37.5326234061455,
    "cluster": 23
  },
  {
    "apt_name": "거산",
    "address": "서울특별시 양천구 신월동 21-4",
    "lng": 126.831841689861,
    "lat": 37.5402182362462,
    "cluster": 21
  },
  {
    "apt_name": "예지보금자리74차",
    "address": "서울특별시 양천구 신월동 480-4",
    "lng": 126.84592455442,
    "lat": 37.5248924243409,
    "cluster": 23
  },
  {
    "apt_name": "용민홈타워빌",
    "address": "서울특별시 양천구 신월동 986-8",
    "lng": 126.836895975546,
    "lat": 37.5186658209107,
    "cluster": ""
  },
  {
    "apt_name": "동양브로미(102동)B",
    "address": "서울특별시 양천구 신월동 492-23",
    "lng": 126.845827882377,
    "lat": 37.5240427438406,
    "cluster": 21
  },
  {
    "apt_name": "세진",
    "address": "서울특별시 양천구 신월동 20-28",
    "lng": 126.832924398547,
    "lat": 37.5409396711997,
    "cluster": 21
  },
  {
    "apt_name": "그랜드팰리스",
    "address": "서울특별시 양천구 신월동 1066",
    "lng": 126.82844424035,
    "lat": 37.5241657258088,
    "cluster": ""
  },
  {
    "apt_name": "동서",
    "address": "서울특별시 양천구 신월동 1069",
    "lng": 126.842981842706,
    "lat": 37.5231351095805,
    "cluster": 23
  },
  {
    "apt_name": "주함헤븐102동",
    "address": "서울특별시 양천구 신월동 203-16",
    "lng": 126.829879864338,
    "lat": 37.53006944869,
    "cluster": ""
  },
  {
    "apt_name": "은성마을승윤노블리안",
    "address": "서울특별시 양천구 신월동 1065",
    "lng": 126.827969375308,
    "lat": 37.5408475924845,
    "cluster": ""
  },
  {
    "apt_name": "흥인아이젠",
    "address": "서울특별시 양천구 신월동 545-2",
    "lng": 126.840791334687,
    "lat": 37.5177955417136,
    "cluster": ""
  },
  {
    "apt_name": "한우리아파트",
    "address": "서울특별시 양천구 신월동 467-2",
    "lng": 126.84584037749,
    "lat": 37.5261069544526,
    "cluster": 21
  },
  {
    "apt_name": "타워빌",
    "address": "서울특별시 양천구 신월동 433-1",
    "lng": 126.839261359672,
    "lat": 37.5235261850905,
    "cluster": ""
  },
  {
    "apt_name": "이형원앙",
    "address": "서울특별시 양천구 신월동 516-7",
    "lng": 126.842615688777,
    "lat": 37.5213975807916,
    "cluster": 23
  },
  {
    "apt_name": "보람",
    "address": "서울특별시 양천구 신월동 457-15",
    "lng": 126.847520868749,
    "lat": 37.5266818124183,
    "cluster": 9
  },
  {
    "apt_name": "당곡",
    "address": "서울특별시 양천구 신월동 547-9",
    "lng": 126.839724153362,
    "lat": 37.5176563351209,
    "cluster": ""
  },
  {
    "apt_name": "은일로즈힐",
    "address": "서울특별시 양천구 신월동 1003-4",
    "lng": 126.836866445878,
    "lat": 37.5159145689064,
    "cluster": ""
  },
  {
    "apt_name": "주남헤븐107동",
    "address": "서울특별시 양천구 신월동 203-20",
    "lng": 126.830149759542,
    "lat": 37.5302886901764,
    "cluster": ""
  },
  {
    "apt_name": "청송",
    "address": "서울특별시 양천구 신월동 1007-11",
    "lng": 126.839352344176,
    "lat": 37.5163355007884,
    "cluster": ""
  },
  {
    "apt_name": "덕현해밀(101동)",
    "address": "서울특별시 양천구 신월동 81-5",
    "lng": 126.829537786692,
    "lat": 37.5365131777133,
    "cluster": ""
  },
  {
    "apt_name": "보금자리",
    "address": "서울특별시 양천구 신월동 1001-5",
    "lng": 126.83918522965,
    "lat": 37.5165145729129,
    "cluster": ""
  },
  {
    "apt_name": "빛여울",
    "address": "서울특별시 양천구 신월동 151-6",
    "lng": 126.824578802008,
    "lat": 37.5350995452927,
    "cluster": ""
  },
  {
    "apt_name": "효성",
    "address": "서울특별시 구로구 가리봉동 139",
    "lng": 126.895304412251,
    "lat": 37.4788964928257,
    "cluster": 23
  },
  {
    "apt_name": "미래하이츠",
    "address": "서울특별시 구로구 가리봉동 137-7",
    "lng": 126.893963682082,
    "lat": 37.4791210900611,
    "cluster": 23
  },
  {
    "apt_name": "동서아파트(313-32)",
    "address": "서울특별시 구로구 개봉동 313-32",
    "lng": 126.852111425694,
    "lat": 37.482029353195,
    "cluster": 6
  },
  {
    "apt_name": "영화",
    "address": "서울특별시 구로구 개봉동 475",
    "lng": 126.860006160686,
    "lat": 37.4961874853839,
    "cluster": 15
  },
  {
    "apt_name": "삼환",
    "address": "서울특별시 구로구 개봉동 470",
    "lng": 126.85445143621,
    "lat": 37.4947561015806,
    "cluster": 1
  },
  {
    "apt_name": "LIPe-푸른아파트",
    "address": "서울특별시 구로구 개봉동 491",
    "lng": 126.850096521487,
    "lat": 37.4930730724402,
    "cluster": 6
  },
  {
    "apt_name": "대상",
    "address": "서울특별시 구로구 개봉동 477",
    "lng": 126.849781656303,
    "lat": 37.4823141960706,
    "cluster": 17
  },
  {
    "apt_name": "한진",
    "address": "서울특별시 구로구 개봉동 478",
    "lng": 126.851939768222,
    "lat": 37.4846795429977,
    "cluster": 27
  },
  {
    "apt_name": "한마을",
    "address": "서울특별시 구로구 개봉동 476",
    "lng": 126.862501576596,
    "lat": 37.4952644521652,
    "cluster": 15
  },
  {
    "apt_name": "개봉푸르지오",
    "address": "서울특별시 구로구 개봉동 492",
    "lng": 126.848147697161,
    "lat": 37.5003989142298,
    "cluster": 22
  },
  {
    "apt_name": "현대홈타운",
    "address": "서울특별시 구로구 개봉동 480",
    "lng": 126.861624228247,
    "lat": 37.4916167844078,
    "cluster": 8
  },
  {
    "apt_name": "율포그레이스빌",
    "address": "서울특별시 구로구 개봉동 483",
    "lng": 126.855663405582,
    "lat": 37.4948353453655,
    "cluster": 6
  },
  {
    "apt_name": "거성푸르뫼",
    "address": "서울특별시 구로구 개봉동 60-101",
    "lng": 126.843492595613,
    "lat": 37.5009278554889,
    "cluster": 12
  },
  {
    "apt_name": "개봉동상우",
    "address": "서울특별시 구로구 개봉동 487",
    "lng": 126.862140395119,
    "lat": 37.493539865586,
    "cluster": 16
  },
  {
    "apt_name": "진로",
    "address": "서울특별시 구로구 개봉동 479",
    "lng": 126.850884904243,
    "lat": 37.4905157520705,
    "cluster": 27
  },
  {
    "apt_name": "청실",
    "address": "서울특별시 구로구 개봉동 175-8",
    "lng": 126.859767401812,
    "lat": 37.4954826154734,
    "cluster": 15
  },
  {
    "apt_name": "상우",
    "address": "서울특별시 구로구 개봉동 473",
    "lng": 126.860969951003,
    "lat": 37.4936986929115,
    "cluster": 15
  },
  {
    "apt_name": "삼호",
    "address": "서울특별시 구로구 개봉동 471",
    "lng": 126.857266745291,
    "lat": 37.4943248911439,
    "cluster": 26
  },
  {
    "apt_name": "제일아파트",
    "address": "서울특별시 구로구 개봉동 361-1",
    "lng": 126.853442613764,
    "lat": 37.4859700378148,
    "cluster": 12
  },
  {
    "apt_name": "동인",
    "address": "서울특별시 구로구 개봉동 335-1",
    "lng": 126.84882012187,
    "lat": 37.4936157438896,
    "cluster": 25
  },
  {
    "apt_name": "거성",
    "address": "서울특별시 구로구 개봉동 270-80",
    "lng": 126.851038992914,
    "lat": 37.4891087538994,
    "cluster": 12
  },
  {
    "apt_name": "개봉동현대아이파크",
    "address": "서울특별시 구로구 개봉동 489",
    "lng": 126.85978624525,
    "lat": 37.4900606508744,
    "cluster": 8
  },
  {
    "apt_name": "건영",
    "address": "서울특별시 구로구 개봉동 47-1",
    "lng": 126.84076732972,
    "lat": 37.5013011939753,
    "cluster": 12
  },
  {
    "apt_name": "신개봉삼환",
    "address": "서울특별시 구로구 개봉동 170-30",
    "lng": 126.857942099077,
    "lat": 37.4966351639805,
    "cluster": 26
  },
  {
    "apt_name": "동도센트리움(70-12)",
    "address": "서울특별시 구로구 개봉동 70-12",
    "lng": 126.846721709913,
    "lat": 37.498257815508,
    "cluster": 6
  },
  {
    "apt_name": "거성푸르뫼2",
    "address": "서울특별시 구로구 개봉동 60-82",
    "lng": 126.843542642515,
    "lat": 37.500085752251,
    "cluster": 12
  },
  {
    "apt_name": "영화아이닉스",
    "address": "서울특별시 구로구 개봉동 488",
    "lng": 126.849247127999,
    "lat": 37.4828042943059,
    "cluster": 27
  },
  {
    "apt_name": "창동",
    "address": "서울특별시 구로구 개봉동 20-1",
    "lng": 126.842686905407,
    "lat": 37.5040148893748,
    "cluster": ""
  },
  {
    "apt_name": "화신",
    "address": "서울특별시 구로구 개봉동 486",
    "lng": 126.846263956014,
    "lat": 37.5053625461292,
    "cluster": ""
  },
  {
    "apt_name": "중앙힐",
    "address": "서울특별시 구로구 개봉동 322-12",
    "lng": 126.851985015318,
    "lat": 37.4917753012089,
    "cluster": 12
  },
  {
    "apt_name": "고운아파트",
    "address": "서울특별시 구로구 개봉동 484",
    "lng": 126.85057920086,
    "lat": 37.4990036544358,
    "cluster": 21
  },
  {
    "apt_name": "림괄",
    "address": "서울특별시 구로구 개봉동 199-4",
    "lng": 126.859764990955,
    "lat": 37.4938085430205,
    "cluster": 25
  },
  {
    "apt_name": "천신하이츠",
    "address": "서울특별시 구로구 개봉동 333-3",
    "lng": 126.852665214694,
    "lat": 37.4915819845202,
    "cluster": 12
  },
  {
    "apt_name": "신양지(나동)",
    "address": "서울특별시 구로구 개봉동 318-1",
    "lng": 126.851190988622,
    "lat": 37.493598751693,
    "cluster": 17
  },
  {
    "apt_name": "신양지(가동)",
    "address": "서울특별시 구로구 개봉동 318-36",
    "lng": 126.851218438231,
    "lat": 37.4933852477662,
    "cluster": 12
  },
  {
    "apt_name": "태경하이빌",
    "address": "서울특별시 구로구 개봉동 367-2",
    "lng": 126.854344733885,
    "lat": 37.4848904849078,
    "cluster": 17
  },
  {
    "apt_name": "수영힐(가동)",
    "address": "서울특별시 구로구 개봉동 61-2",
    "lng": 126.844753831369,
    "lat": 37.5015065233638,
    "cluster": 21
  },
  {
    "apt_name": "수영힐(나동)",
    "address": "서울특별시 구로구 개봉동 63-15",
    "lng": 126.844665340763,
    "lat": 37.5012044802441,
    "cluster": 21
  },
  {
    "apt_name": "힐탑",
    "address": "서울특별시 금천구 독산동 894-20",
    "lng": 126.908082965278,
    "lat": 37.4769803164988,
    "cluster": ""
  },
  {
    "apt_name": "이랜드해가든",
    "address": "서울특별시 금천구 독산동 1143",
    "lng": 126.893069638924,
    "lat": 37.461012860734,
    "cluster": 27
  },
  {
    "apt_name": "독산주공14단지",
    "address": "서울특별시 금천구 독산동 1088",
    "lng": 126.886483831561,
    "lat": 37.4600847128236,
    "cluster": 27
  },
  {
    "apt_name": "설악솔내음",
    "address": "서울특별시 금천구 독산동 1138",
    "lng": 126.902235700843,
    "lat": 37.4720837712966,
    "cluster": ""
  },
  {
    "apt_name": "독산동중앙하이츠빌",
    "address": "서울특별시 금천구 독산동 1140",
    "lng": 126.888559946819,
    "lat": 37.4648129442296,
    "cluster": 26
  },
  {
    "apt_name": "리치힐(1052-5)",
    "address": "서울특별시 금천구 독산동 1052-5",
    "lng": 126.899077105751,
    "lat": 37.4643833315697,
    "cluster": 23
  },
  {
    "apt_name": "삼성로얄",
    "address": "서울특별시 금천구 독산동 994-76",
    "lng": 126.904348578418,
    "lat": 37.4726006079618,
    "cluster": ""
  },
  {
    "apt_name": "진도3차아파트",
    "address": "서울특별시 금천구 독산동 1136",
    "lng": 126.893292290962,
    "lat": 37.4683432379199,
    "cluster": 1
  },
  {
    "apt_name": "계룡아파트",
    "address": "서울특별시 금천구 독산동 332-14",
    "lng": 126.892786325682,
    "lat": 37.4671488507359,
    "cluster": 26
  },
  {
    "apt_name": "라이프",
    "address": "서울특별시 금천구 독산동 1131",
    "lng": 126.892269962037,
    "lat": 37.4610803410277,
    "cluster": 27
  },
  {
    "apt_name": "삼환아파트",
    "address": "서울특별시 금천구 독산동 1006-132",
    "lng": 126.892210536147,
    "lat": 37.465784917329,
    "cluster": 26
  },
  {
    "apt_name": "금천현대",
    "address": "서울특별시 금천구 독산동 711-2",
    "lng": 126.890336982731,
    "lat": 37.4622669072265,
    "cluster": 9
  },
  {
    "apt_name": "동은5차",
    "address": "서울특별시 금천구 독산동 883-21",
    "lng": 126.906801198187,
    "lat": 37.4773048471009,
    "cluster": ""
  },
  {
    "apt_name": "독산현대",
    "address": "서울특별시 금천구 독산동 293-10",
    "lng": 126.895005775673,
    "lat": 37.4674569169307,
    "cluster": 17
  },
  {
    "apt_name": "목화101",
    "address": "서울특별시 금천구 독산동 1132",
    "lng": 126.904692471906,
    "lat": 37.4766954342059,
    "cluster": 23
  },
  {
    "apt_name": "상진지오벨리A",
    "address": "서울특별시 금천구 독산동 1017-8",
    "lng": 126.900997107166,
    "lat": 37.468518072931,
    "cluster": ""
  },
  {
    "apt_name": "독산동한양수자인",
    "address": "서울특별시 금천구 독산동 1144",
    "lng": 126.899314724455,
    "lat": 37.4759170971238,
    "cluster": ""
  },
  {
    "apt_name": "청호센트레빌",
    "address": "서울특별시 금천구 독산동 887-5",
    "lng": 126.905257331114,
    "lat": 37.4762166415755,
    "cluster": ""
  },
  {
    "apt_name": "진도2차",
    "address": "서울특별시 금천구 독산동 1133",
    "lng": 126.892217696178,
    "lat": 37.4700097626348,
    "cluster": 17
  },
  {
    "apt_name": "대광아파트",
    "address": "서울특별시 금천구 독산동 990-3",
    "lng": 126.903019761953,
    "lat": 37.4735993755132,
    "cluster": ""
  },
  {
    "apt_name": "독산동아아파트",
    "address": "서울특별시 금천구 독산동 183-1",
    "lng": 126.906324806118,
    "lat": 37.4699490765322,
    "cluster": ""
  },
  {
    "apt_name": "힐탑아파트3차(894-3)",
    "address": "서울특별시 금천구 독산동 894-3",
    "lng": 126.907907616662,
    "lat": 37.4771649769747,
    "cluster": ""
  },
  {
    "apt_name": "해찬아파트",
    "address": "서울특별시 금천구 독산동 917-3",
    "lng": 126.906717851452,
    "lat": 37.4691381176373,
    "cluster": ""
  },
  {
    "apt_name": "아셈그린힐",
    "address": "서울특별시 금천구 독산동 184-3",
    "lng": 126.905199795277,
    "lat": 37.4693177423216,
    "cluster": ""
  },
  {
    "apt_name": "리치힐103동(992-0)",
    "address": "서울특별시 금천구 독산동 992",
    "lng": 126.904254656068,
    "lat": 37.4737364350737,
    "cluster": ""
  },
  {
    "apt_name": "목화102",
    "address": "서울특별시 금천구 독산동 961-13",
    "lng": 126.904108004472,
    "lat": 37.4767650598509,
    "cluster": 23
  },
  {
    "apt_name": "서초파레스",
    "address": "서울특별시 금천구 독산동 1141",
    "lng": 126.899547680668,
    "lat": 37.4705457449469,
    "cluster": ""
  },
  {
    "apt_name": "세심아파트",
    "address": "서울특별시 금천구 독산동 181-139",
    "lng": 126.906348301875,
    "lat": 37.4710504000703,
    "cluster": ""
  },
  {
    "apt_name": "예전이룸(965-1)",
    "address": "서울특별시 금천구 독산동 965-1",
    "lng": 126.90044559191,
    "lat": 37.4766875173642,
    "cluster": 23
  },
  {
    "apt_name": "장미아파트B동",
    "address": "서울특별시 금천구 독산동 889-36",
    "lng": 126.906803823731,
    "lat": 37.476829296453,
    "cluster": ""
  },
  {
    "apt_name": "청광플러스원",
    "address": "서울특별시 금천구 독산동 1139",
    "lng": 126.894132393752,
    "lat": 37.4712461478703,
    "cluster": 27
  },
  {
    "apt_name": "한아프라임101동",
    "address": "서울특별시 금천구 독산동 147-76",
    "lng": 126.896580851741,
    "lat": 37.4754381920147,
    "cluster": ""
  },
  {
    "apt_name": "태영아파트",
    "address": "서울특별시 금천구 독산동 1003-21",
    "lng": 126.890477275406,
    "lat": 37.4662058977236,
    "cluster": 26
  },
  {
    "apt_name": "동심",
    "address": "서울특별시 금천구 독산동 184-4",
    "lng": 126.904902232038,
    "lat": 37.4690762126091,
    "cluster": ""
  },
  {
    "apt_name": "힐탑아파트4차(894-5)",
    "address": "서울특별시 금천구 독산동 894-5",
    "lng": 126.908176194577,
    "lat": 37.4771986134452,
    "cluster": ""
  },
  {
    "apt_name": "한아마인드",
    "address": "서울특별시 금천구 독산동 1142",
    "lng": 126.89410320597,
    "lat": 37.4670144360773,
    "cluster": 6
  },
  {
    "apt_name": "각산",
    "address": "서울특별시 금천구 독산동 1093-5",
    "lng": 126.887024730146,
    "lat": 37.4559923837797,
    "cluster": 17
  },
  {
    "apt_name": "진도1차",
    "address": "서울특별시 금천구 독산동 1002",
    "lng": 126.890708054788,
    "lat": 37.4677901783741,
    "cluster": 26
  },
  {
    "apt_name": "푸른터",
    "address": "서울특별시 금천구 독산동 957",
    "lng": 126.901418653416,
    "lat": 37.4780630931035,
    "cluster": 23
  },
  {
    "apt_name": "백운",
    "address": "서울특별시 금천구 독산동 1135",
    "lng": 126.893127980183,
    "lat": 37.46465381046,
    "cluster": 6
  },
  {
    "apt_name": "동은4차",
    "address": "서울특별시 금천구 독산동 883-10",
    "lng": 126.907026481943,
    "lat": 37.4773335865769,
    "cluster": ""
  },
  {
    "apt_name": "호정타워",
    "address": "서울특별시 금천구 독산동 1069",
    "lng": 126.900279217997,
    "lat": 37.4611676510962,
    "cluster": 23
  },
  {
    "apt_name": "동은노보빌(887-2)",
    "address": "서울특별시 금천구 독산동 887-2",
    "lng": 126.904775912236,
    "lat": 37.4761559770493,
    "cluster": ""
  },
  {
    "apt_name": "문성",
    "address": "서울특별시 금천구 독산동 887-7",
    "lng": 126.905634007762,
    "lat": 37.4762312690542,
    "cluster": ""
  },
  {
    "apt_name": "세진(1037-31)",
    "address": "서울특별시 금천구 독산동 1037-31",
    "lng": 126.901928693033,
    "lat": 37.465485056215,
    "cluster": ""
  },
  {
    "apt_name": "대덕트윈빌",
    "address": "서울특별시 금천구 독산동 1028",
    "lng": 126.89910651287,
    "lat": 37.4673141651969,
    "cluster": 23
  },
  {
    "apt_name": "동양드림아파트",
    "address": "서울특별시 금천구 독산동 378-77",
    "lng": 126.906682938627,
    "lat": 37.4655772953798,
    "cluster": ""
  },
  {
    "apt_name": "한아(987-21)",
    "address": "서울특별시 금천구 독산동 987-21",
    "lng": 126.899984043288,
    "lat": 37.4732545513397,
    "cluster": ""
  },
  {
    "apt_name": "한아102(994-73)",
    "address": "서울특별시 금천구 독산동 994-73",
    "lng": 126.906028263294,
    "lat": 37.4721383860489,
    "cluster": ""
  },
  {
    "apt_name": "동은6차",
    "address": "서울특별시 금천구 독산동 883-22",
    "lng": 126.906576254106,
    "lat": 37.4772758371611,
    "cluster": 23
  },
  {
    "apt_name": "중앙아파트",
    "address": "서울특별시 금천구 독산동 333-24",
    "lng": 126.891787445891,
    "lat": 37.4692279231316,
    "cluster": 15
  },
  {
    "apt_name": "한솔아트빌라",
    "address": "서울특별시 금천구 독산동 907-21",
    "lng": 126.910285146268,
    "lat": 37.4767092735532,
    "cluster": ""
  },
  {
    "apt_name": "을미월드힐",
    "address": "서울특별시 금천구 독산동 958",
    "lng": 126.901460976217,
    "lat": 37.4785494931155,
    "cluster": 21
  },
  {
    "apt_name": "상진지오벨리B",
    "address": "서울특별시 금천구 독산동 1017-24",
    "lng": 126.901202747066,
    "lat": 37.4685057209943,
    "cluster": ""
  },
  {
    "apt_name": "세진웰빙101",
    "address": "서울특별시 금천구 독산동 992-42",
    "lng": 126.905087312995,
    "lat": 37.4737018773519,
    "cluster": ""
  },
  {
    "apt_name": "리버스타운",
    "address": "서울특별시 금천구 독산동 1006-139",
    "lng": 126.892629927499,
    "lat": 37.4649012271329,
    "cluster": 20
  },
  {
    "apt_name": "리치힐104동(992-43)",
    "address": "서울특별시 금천구 독산동 992-43",
    "lng": 126.904546791168,
    "lat": 37.4737254989058,
    "cluster": ""
  },
  {
    "apt_name": "은탑로얄클라스",
    "address": "서울특별시 금천구 독산동 303-1",
    "lng": 126.891423081621,
    "lat": 37.4721376715884,
    "cluster": 12
  },
  {
    "apt_name": "성웅",
    "address": "서울특별시 금천구 독산동 888-18",
    "lng": 126.90530350703,
    "lat": 37.4766250160553,
    "cluster": ""
  },
  {
    "apt_name": "당산반도유보라팰리스",
    "address": "서울특별시 영등포구 당산동4가 96",
    "lng": 126.901285885351,
    "lat": 37.5273143682242,
    "cluster": 19
  },
  {
    "apt_name": "당산현대5차",
    "address": "서울특별시 영등포구 당산동4가 30-1",
    "lng": 126.900812746942,
    "lat": 37.5296404475771,
    "cluster": 7
  },
  {
    "apt_name": "유원제일",
    "address": "서울특별시 영등포구 당산동4가 91",
    "lng": 126.896132268182,
    "lat": 37.5298846497326,
    "cluster": 3
  },
  {
    "apt_name": "당산현대3차",
    "address": "서울특별시 영등포구 당산동4가 88",
    "lng": 126.89638327158,
    "lat": 37.5310603162321,
    "cluster": 3
  },
  {
    "apt_name": "당산삼성2차",
    "address": "서울특별시 영등포구 당산동4가 94-1",
    "lng": 126.89843233437,
    "lat": 37.5278539911899,
    "cluster": 2
  },
  {
    "apt_name": "브라운스톤당산",
    "address": "서울특별시 영등포구 당산동4가 98",
    "lng": 126.901882778959,
    "lat": 37.5275616499524,
    "cluster": 19
  },